[{"type":"Feature","geometry":{"type":"Point","coordinates":[-4.04,5.32]},"properties":{"city":"Abidjan","cityId":"Abidjan","country":"Ivory Coast","lat":5.32,"lng":-4.04,"scale":2.72}},{"type":"Feature","geometry":{"type":"Point","coordinates":[54.37,24.47]},"properties":{"city":"Abu Dhabi","cityId":"Abu Dhabi","country":"United Arab Emirates","lat":24.47,"lng":54.37,"scale":1.33}},{"type":"Feature","geometry":{"type":"Point","coordinates":[7.53,9.08]},"properties":{"city":"Abuja","cityId":"Abuja","country":"Nigeria","lat":9.08,"lng":7.53,"scale":1.9}},{"type":"Feature","geometry":{"type":"Point","coordinates":[-99.92,16.85]},"properties":{"city":"Acapulco","cityId":"Acapulco","country":"Mexico","lat":16.85,"lng":-99.92,"scale":1.41}},{"type":"Feature","geometry":{"type":"Point","coordinates":[-0.22,5.55]},"properties":{"city":"Accra","cityId":"Accra","country":"Ghana","lat":5.55,"lng":-0.22,"scale":2.14}},{"type":"Feature","geometry":{"type":"Point","coordinates":[35.32,36.99]},"properties":{"city":"Adana","cityId":"Adana","country":"Turkey","lat":36.99,"lng":35.32,"scale":1.76}},{"type":"Feature","geometry":{"type":"Point","coordinates":[38.7,9.03]},"properties":{"city":"Addis Ababa","cityId":"Addis Ababa","country":"Ethiopia","lat":9.03,"lng":38.7,"scale":2.5}},{"type":"Feature","geometry":{"type":"Point","coordinates":[138.6,-34.93]},"properties":{"city":"Adelaide","cityId":"Adelaide","country":"Australia","lat":-34.93,"lng":138.6,"scale":1.68}},{"type":"Feature","geometry":{"type":"Point","coordinates":[45.01,12.78]},"properties":{"city":"Aden","cityId":"Aden","country":"Yemen","lat":12.78,"lng":45.01,"scale":1.59}},{"type":"Feature","geometry":{"type":"Point","coordinates":[78.02,27.17]},"properties":{"city":"Agra","cityId":"Agra","country":"India","lat":27.17,"lng":78.02,"scale":1.9}},{"type":"Feature","geometry":{"type":"Point","coordinates":[72.58,23.03]},"properties":{"city":"Ahmedabad","cityId":"Ahmedabad","country":"India","lat":23.03,"lng":72.58,"scale":3.16}},{"type":"Feature","geometry":{"type":"Point","coordinates":[48.72,31.28]},"properties":{"city":"Ahvaz","cityId":"Ahvaz","country":"Iran","lat":31.28,"lng":48.72,"scale":1.59}},{"type":"Feature","geometry":{"type":"Point","coordinates":[77.01,20.71]},"properties":{"city":"Akola","cityId":"Akola","country":"India","lat":20.71,"lng":77.01,"scale":1.25}},{"type":"Feature","geometry":{"type":"Point","coordinates":[-106.64,35.1]},"properties":{"city":"Albuquerque","cityId":"Albuquerque","country":"United States of America","lat":35.1,"lng":-106.64,"scale":1.53}},{"type":"Feature","geometry":{"type":"Point","coordinates":[37.17,36.23]},"properties":{"city":"Aleppo","cityId":"Aleppo","country":"Syria","lat":36.23,"lng":37.17,"scale":2.37}},{"type":"Feature","geometry":{"type":"Point","coordinates":[29.95,31.2]},"properties":{"city":"Alexandria","cityId":"Alexandria","country":"Egypt","lat":31.2,"lng":29.95,"scale":2.83}},{"type":"Feature","geometry":{"type":"Point","coordinates":[3.05,36.76]},"properties":{"city":"Algiers","cityId":"Algiers","country":"Algeria","lat":36.76,"lng":3.05,"scale":2.58}},{"type":"Feature","geometry":{"type":"Point","coordinates":[78.06,27.89]},"properties":{"city":"Aligarh","cityId":"Aligarh","country":"India","lat":27.89,"lng":78.06,"scale":1.47}},{"type":"Feature","geometry":{"type":"Point","coordinates":[81.84,25.45]},"properties":{"city":"Allahabad","cityId":"Allahabad","country":"India","lat":25.45,"lng":81.84,"scale":1.71}},{"type":"Feature","geometry":{"type":"Point","coordinates":[76.92,43.32]},"properties":{"city":"Almaty","cityId":"Almaty","country":"Kazakhstan","lat":43.32,"lng":76.92,"scale":1.71}},{"type":"Feature","geometry":{"type":"Point","coordinates":[128.2,-3.72]},"properties":{"city":"Ambon","cityId":"Ambon","country":"Indonesia","lat":-3.72,"lng":128.2,"scale":1.11}},{"type":"Feature","geometry":{"type":"Point","coordinates":[35.93,31.95]},"properties":{"city":"Amman","cityId":"Amman","country":"Jordan","lat":31.95,"lng":35.93,"scale":1.63}},{"type":"Feature","geometry":{"type":"Point","coordinates":[74.87,31.64]},"properties":{"city":"Amritsar","cityId":"Amritsar","country":"India","lat":31.64,"lng":74.87,"scale":1.71}},{"type":"Feature","geometry":{"type":"Point","coordinates":[4.92,52.35]},"properties":{"city":"Amsterdam","cityId":"Amsterdam","country":"Netherlands","lat":52.35,"lng":4.92,"scale":1.61}},{"type":"Feature","geometry":{"type":"Point","coordinates":[44.34,32]},"properties":{"city":"An Najaf","cityId":"An Najaf","country":"Iraq","lat":32,"lng":44.34,"scale":1.38}},{"type":"Feature","geometry":{"type":"Point","coordinates":[-149.9,61.22]},"properties":{"city":"Anchorage","cityId":"Anchorage","country":"United States of America","lat":61.22,"lng":-149.9,"scale":1.01}},{"type":"Feature","geometry":{"type":"Point","coordinates":[72.34,40.79]},"properties":{"city":"Andijon","cityId":"Andijon","country":"Uzbekistan","lat":40.79,"lng":72.34,"scale":1.36}},{"type":"Feature","geometry":{"type":"Point","coordinates":[109.02,32.68]},"properties":{"city":"Ankang","cityId":"Ankang","country":"China","lat":32.68,"lng":109.02,"scale":1.65}},{"type":"Feature","geometry":{"type":"Point","coordinates":[32.86,39.93]},"properties":{"city":"Ankara","cityId":"Ankara","country":"Turkey","lat":39.93,"lng":32.86,"scale":2.7}},{"type":"Feature","geometry":{"type":"Point","coordinates":[7.76,36.92]},"properties":{"city":"Annaba","cityId":"Annaba","country":"Algeria","lat":36.92,"lng":7.76,"scale":1.25}},{"type":"Feature","geometry":{"type":"Point","coordinates":[122.94,41.12]},"properties":{"city":"Anshan","cityId":"Anshan","country":"China","lat":41.12,"lng":122.94,"scale":1.93}},{"type":"Feature","geometry":{"type":"Point","coordinates":[47.52,-18.92]},"properties":{"city":"Antananarivo","cityId":"Antananarivo","country":"Madagascar","lat":-18.92,"lng":47.52,"scale":1.95}},{"type":"Feature","geometry":{"type":"Point","coordinates":[-70.4,-23.65]},"properties":{"city":"Antofagasta","cityId":"Antofagasta","country":"Chile","lat":-23.65,"lng":-70.4,"scale":1.07}},{"type":"Feature","geometry":{"type":"Point","coordinates":[57.17,50.28]},"properties":{"city":"Aqtobe","cityId":"Aqtobe","country":"Kazakhstan","lat":50.28,"lng":57.17,"scale":1.01}},{"type":"Feature","geometry":{"type":"Point","coordinates":[40.55,64.57]},"properties":{"city":"Archangel","cityId":"Archangel","country":"Russia","lat":64.57,"lng":40.55,"scale":1.11}},{"type":"Feature","geometry":{"type":"Point","coordinates":[-71.53,-16.42]},"properties":{"city":"Arequipa","cityId":"Arequipa","country":"Peru","lat":-16.42,"lng":-71.53,"scale":1.48}},{"type":"Feature","geometry":{"type":"Point","coordinates":[30.9,3.02]},"properties":{"city":"Arua","cityId":"Arua","country":"Uganda","lat":3.02,"lng":30.9,"scale":1}},{"type":"Feature","geometry":{"type":"Point","coordinates":[36.67,-3.36]},"properties":{"city":"Arusha","cityId":"Arusha","country":"Tanzania","lat":-3.36,"lng":36.67,"scale":1.1}},{"type":"Feature","geometry":{"type":"Point","coordinates":[86.98,23.68]},"properties":{"city":"Asansol","cityId":"Asansol","country":"India","lat":23.68,"lng":86.98,"scale":1.77}},{"type":"Feature","geometry":{"type":"Point","coordinates":[58.38,37.95]},"properties":{"city":"Ashgabat","cityId":"Ashgabat","country":"Turkmenistan","lat":37.95,"lng":58.38,"scale":1.42}},{"type":"Feature","geometry":{"type":"Point","coordinates":[38.93,15.33]},"properties":{"city":"Asmara","cityId":"Asmara","country":"Eritrea","lat":15.33,"lng":38.93,"scale":1.34}},{"type":"Feature","geometry":{"type":"Point","coordinates":[71.43,51.18]},"properties":{"city":"Astana","cityId":"Astana","country":"Kazakhstan","lat":51.18,"lng":71.43,"scale":1.1}},{"type":"Feature","geometry":{"type":"Point","coordinates":[48.05,46.35]},"properties":{"city":"Astrakhan","cityId":"Astrakhan","country":"Russia","lat":46.35,"lng":48.05,"scale":1.25}},{"type":"Feature","geometry":{"type":"Point","coordinates":[-57.64,-25.3]},"properties":{"city":"Asuncion","cityId":"Asuncion","country":"Paraguay","lat":-25.3,"lng":-57.64,"scale":2.03}},{"type":"Feature","geometry":{"type":"Point","coordinates":[32.9,24.09]},"properties":{"city":"Aswan","cityId":"Aswan","country":"Egypt","lat":24.09,"lng":32.9,"scale":1.07}},{"type":"Feature","geometry":{"type":"Point","coordinates":[31.18,27.19]},"properties":{"city":"Asyut","cityId":"Asyut","country":"Egypt","lat":27.19,"lng":31.18,"scale":1.18}},{"type":"Feature","geometry":{"type":"Point","coordinates":[23.73,37.98]},"properties":{"city":"Athens","cityId":"Athens","country":"Greece","lat":37.98,"lng":23.73,"scale":2.54}},{"type":"Feature","geometry":{"type":"Point","coordinates":[-84.4,33.83]},"properties":{"city":"Atlanta","cityId":"Atlanta","country":"United States of America","lat":33.83,"lng":-84.4,"scale":2.93}},{"type":"Feature","geometry":{"type":"Point","coordinates":[174.76,-36.85]},"properties":{"city":"Auckland","cityId":"Auckland","country":"New Zealand","lat":-36.85,"lng":174.76,"scale":1.8}},{"type":"Feature","geometry":{"type":"Point","coordinates":[75.32,19.9]},"properties":{"city":"Aurangabad","cityId":"Aurangabad","country":"India","lat":19.9,"lng":75.32,"scale":1.66}},{"type":"Feature","geometry":{"type":"Point","coordinates":[-97.74,30.27]},"properties":{"city":"Austin","cityId":"Austin","country":"United States of America","lat":30.27,"lng":-97.74,"scale":1.69}},{"type":"Feature","geometry":{"type":"Point","coordinates":[44.39,33.34]},"properties":{"city":"Baghdad","cityId":"Baghdad","country":"Iraq","lat":33.34,"lng":44.39,"scale":3.08}},{"type":"Feature","geometry":{"type":"Point","coordinates":[120.57,16.43]},"properties":{"city":"Baguio City","cityId":"Baguio City","country":"Philippines","lat":16.43,"lng":120.57,"scale":1.2}},{"type":"Feature","geometry":{"type":"Point","coordinates":[-62.27,-38.74]},"properties":{"city":"Bahia Blanca","cityId":"Bahia Blanca","country":"Argentina","lat":-38.74,"lng":-62.27,"scale":1.04}},{"type":"Feature","geometry":{"type":"Point","coordinates":[49.86,40.4]},"properties":{"city":"Baku","cityId":"Baku","country":"Azerbaijan","lat":40.4,"lng":49.86,"scale":2.14}},{"type":"Feature","geometry":{"type":"Point","coordinates":[116.83,-1.25]},"properties":{"city":"Balikpapan","cityId":"Balikpapan","country":"Indonesia","lat":-1.25,"lng":116.83,"scale":1.2}},{"type":"Feature","geometry":{"type":"Point","coordinates":[-76.62,39.3]},"properties":{"city":"Baltimore","cityId":"Baltimore","country":"United States of America","lat":39.3,"lng":-76.62,"scale":2.19}},{"type":"Feature","geometry":{"type":"Point","coordinates":[-8,12.65]},"properties":{"city":"Bamako","cityId":"Bamako","country":"Mali","lat":12.65,"lng":-8,"scale":1.86}},{"type":"Feature","geometry":{"type":"Point","coordinates":[10.15,5.96]},"properties":{"city":"Bamenda","cityId":"Bamenda","country":"Cameroon","lat":5.96,"lng":10.15,"scale":1.2}},{"type":"Feature","geometry":{"type":"Point","coordinates":[95.32,5.55]},"properties":{"city":"Banda Aceh","cityId":"Banda Aceh","country":"Indonesia","lat":5.55,"lng":95.32,"scale":1.26}},{"type":"Feature","geometry":{"type":"Point","coordinates":[105.27,-5.43]},"properties":{"city":"Bandar Lampung","cityId":"Bandar Lampung","country":"Indonesia","lat":-5.43,"lng":105.27,"scale":1.51}},{"type":"Feature","geometry":{"type":"Point","coordinates":[114.93,4.88]},"properties":{"city":"Bandar Seri Begawan","cityId":"Bandar Seri Begawan","country":"Brunei","lat":4.88,"lng":114.93,"scale":1.05}},{"type":"Feature","geometry":{"type":"Point","coordinates":[56.27,27.2]},"properties":{"city":"Bandar-e-Abbas","cityId":"Bandar-e-Abbas","country":"Iran","lat":27.2,"lng":56.27,"scale":1.21}},{"type":"Feature","geometry":{"type":"Point","coordinates":[114.58,-3.33]},"properties":{"city":"Bandjarmasin","cityId":"Bandjarmasin","country":"Indonesia","lat":-3.33,"lng":114.58,"scale":1.33}},{"type":"Feature","geometry":{"type":"Point","coordinates":[107.57,-6.95]},"properties":{"city":"Bandung","cityId":"Bandung","country":"Indonesia","lat":-6.95,"lng":107.57,"scale":2.24}},{"type":"Feature","geometry":{"type":"Point","coordinates":[77.56,12.97]},"properties":{"city":"Bangalore","cityId":"Bangalore","country":"India","lat":12.97,"lng":77.56,"scale":3.5}},{"type":"Feature","geometry":{"type":"Point","coordinates":[20.07,32.12]},"properties":{"city":"Banghazi","cityId":"Banghazi","country":"Libya","lat":32.12,"lng":20.07,"scale":1.7}},{"type":"Feature","geometry":{"type":"Point","coordinates":[100.52,13.75]},"properties":{"city":"Bangkok","cityId":"Bangkok","country":"Thailand","lat":13.75,"lng":100.52,"scale":3.48}},{"type":"Feature","geometry":{"type":"Point","coordinates":[18.56,4.37]},"properties":{"city":"Bangui","cityId":"Bangui","country":"Central African Republic","lat":4.37,"lng":18.56,"scale":1.49}},{"type":"Feature","geometry":{"type":"Point","coordinates":[99.15,25.12]},"properties":{"city":"Baoshan","cityId":"Baoshan","country":"China","lat":25.12,"lng":99.15,"scale":1.59}},{"type":"Feature","geometry":{"type":"Point","coordinates":[109.82,40.65]},"properties":{"city":"Baotou","cityId":"Baotou","country":"China","lat":40.65,"lng":109.82,"scale":2.1}},{"type":"Feature","geometry":{"type":"Point","coordinates":[2.18,41.38]},"properties":{"city":"Barcelona","cityId":"Barcelona","country":"Spain","lat":41.38,"lng":2.18,"scale":3.04}},{"type":"Feature","geometry":{"type":"Point","coordinates":[16.87,41.11]},"properties":{"city":"Bari","cityId":"Bari","country":"Italy","lat":41.11,"lng":16.87,"scale":1.25}},{"type":"Feature","geometry":{"type":"Point","coordinates":[83.75,53.35]},"properties":{"city":"Barnaul","cityId":"Barnaul","country":"Russia","lat":53.35,"lng":83.75,"scale":1.33}},{"type":"Feature","geometry":{"type":"Point","coordinates":[-74.8,10.96]},"properties":{"city":"Barranquilla","cityId":"Barranquilla","country":"Colombia","lat":10.96,"lng":-74.8,"scale":2}},{"type":"Feature","geometry":{"type":"Point","coordinates":[47.81,30.51]},"properties":{"city":"Basra","cityId":"Basra","country":"Iraq","lat":30.51,"lng":47.81,"scale":1.51}},{"type":"Feature","geometry":{"type":"Point","coordinates":[-91.14,30.46]},"properties":{"city":"Baton Rouge","cityId":"Baton Rouge","country":"United States of America","lat":30.46,"lng":-91.14,"scale":1.18}},{"type":"Feature","geometry":{"type":"Point","coordinates":[116.39,39.93]},"properties":{"city":"Beijing","cityId":"Beijing","country":"China","lat":39.93,"lng":116.39,"scale":4.36}},{"type":"Feature","geometry":{"type":"Point","coordinates":[34.87,-19.82]},"properties":{"city":"Beira","cityId":"Beira","country":"Mozambique","lat":-19.82,"lng":34.87,"scale":1.27}},{"type":"Feature","geometry":{"type":"Point","coordinates":[35.51,33.87]},"properties":{"city":"Beirut","cityId":"Beirut","country":"Lebanon","lat":33.87,"lng":35.51,"scale":2.02}},{"type":"Feature","geometry":{"type":"Point","coordinates":[-48.48,-1.45]},"properties":{"city":"Belem","cityId":"Belem","country":"Brazil","lat":-1.45,"lng":-48.48,"scale":2.15}},{"type":"Feature","geometry":{"type":"Point","coordinates":[-5.96,54.6]},"properties":{"city":"Belfast","cityId":"Belfast","country":"United Kingdom","lat":54.6,"lng":-5.96,"scale":1.2}},{"type":"Feature","geometry":{"type":"Point","coordinates":[20.47,44.82]},"properties":{"city":"Belgrade","cityId":"Belgrade","country":"Serbia","lat":44.82,"lng":20.47,"scale":1.65}},{"type":"Feature","geometry":{"type":"Point","coordinates":[-43.92,-19.92]},"properties":{"city":"Belo Horizonte","cityId":"Belo Horizonte","country":"Brazil","lat":-19.92,"lng":-43.92,"scale":3.21}},{"type":"Feature","geometry":{"type":"Point","coordinates":[5.62,6.34]},"properties":{"city":"Benin City","cityId":"Benin City","country":"Nigeria","lat":6.34,"lng":5.62,"scale":1.7}},{"type":"Feature","geometry":{"type":"Point","coordinates":[13.4,52.52]},"properties":{"city":"Berlin","cityId":"Berlin","country":"Germany","lat":52.52,"lng":13.4,"scale":2.6}},{"type":"Feature","geometry":{"type":"Point","coordinates":[7.47,46.92]},"properties":{"city":"Bern","cityId":"Bern","country":"Switzerland","lat":46.92,"lng":7.47,"scale":1.03}},{"type":"Feature","geometry":{"type":"Point","coordinates":[86.98,25.23]},"properties":{"city":"Bhagalpur","cityId":"Bhagalpur","country":"India","lat":25.23,"lng":86.98,"scale":1.12}},{"type":"Feature","geometry":{"type":"Point","coordinates":[81.43,21.22]},"properties":{"city":"Bhilai","cityId":"Bhilai","country":"India","lat":21.22,"lng":81.43,"scale":1.65}},{"type":"Feature","geometry":{"type":"Point","coordinates":[77.41,23.25]},"properties":{"city":"Bhopal","cityId":"Bhopal","country":"India","lat":23.25,"lng":77.41,"scale":1.97}},{"type":"Feature","geometry":{"type":"Point","coordinates":[85.83,20.27]},"properties":{"city":"Bhubaneshwar","cityId":"Bhubaneshwar","country":"India","lat":20.27,"lng":85.83,"scale":1.5}},{"type":"Feature","geometry":{"type":"Point","coordinates":[-2.93,43.25]},"properties":{"city":"Bilbao","cityId":"Bilbao","country":"Spain","lat":43.25,"lng":-2.93,"scale":1.52}},{"type":"Feature","geometry":{"type":"Point","coordinates":[-1.92,52.47]},"properties":{"city":"Birmingham","cityId":"Birmingham","country":"United Kingdom","lat":52.47,"lng":-1.92,"scale":2.2}},{"type":"Feature","geometry":{"type":"Point","coordinates":[74.59,42.87]},"properties":{"city":"Bishkek","cityId":"Bishkek","country":"Kyrgyzstan","lat":42.87,"lng":74.59,"scale":1.49}},{"type":"Feature","geometry":{"type":"Point","coordinates":[-15.6,11.87]},"properties":{"city":"Bissau","cityId":"Bissau","country":"Guinea Bissau","lat":11.87,"lng":-15.6,"scale":1.16}},{"type":"Feature","geometry":{"type":"Point","coordinates":[34.99,-15.79]},"properties":{"city":"Blantyre","cityId":"Blantyre","country":"Malawi","lat":-15.79,"lng":34.99,"scale":1.31}},{"type":"Feature","geometry":{"type":"Point","coordinates":[26.23,-29.12]},"properties":{"city":"Bloemfontein","cityId":"Bloemfontein","country":"South Africa","lat":-29.12,"lng":26.23,"scale":1.21}},{"type":"Feature","geometry":{"type":"Point","coordinates":[-4.29,11.18]},"properties":{"city":"Bobo Dioulasso","cityId":"Bobo Dioulasso","country":"Burkina Faso","lat":11.18,"lng":-4.29,"scale":1.12}},{"type":"Feature","geometry":{"type":"Point","coordinates":[-74.08,4.6]},"properties":{"city":"Bogota","cityId":"Bogota","country":"Colombia","lat":4.6,"lng":-74.08,"scale":3.72}},{"type":"Feature","geometry":{"type":"Point","coordinates":[-116.23,43.61]},"properties":{"city":"Boise","cityId":"Boise","country":"United States of America","lat":43.61,"lng":-116.23,"scale":1.1}},{"type":"Feature","geometry":{"type":"Point","coordinates":[11.34,44.5]},"properties":{"city":"Bologna","cityId":"Bologna","country":"Italy","lat":44.5,"lng":11.34,"scale":1.24}},{"type":"Feature","geometry":{"type":"Point","coordinates":[-0.6,44.85]},"properties":{"city":"Bordeaux","cityId":"Bordeaux","country":"France","lat":44.85,"lng":-0.6,"scale":1.47}},{"type":"Feature","geometry":{"type":"Point","coordinates":[-71.07,42.33]},"properties":{"city":"Boston","cityId":"Boston","country":"United States of America","lat":42.33,"lng":-71.07,"scale":2.92}},{"type":"Feature","geometry":{"type":"Point","coordinates":[-5.03,7.69]},"properties":{"city":"Bouake","cityId":"Bouake","country":"Ivory Coast","lat":7.69,"lng":-5.03,"scale":1.3}},{"type":"Feature","geometry":{"type":"Point","coordinates":[-47.92,-15.78]},"properties":{"city":"Brasilia","cityId":"Brasilia","country":"Brazil","lat":-15.78,"lng":-47.92,"scale":2.7}},{"type":"Feature","geometry":{"type":"Point","coordinates":[17.12,48.15]},"properties":{"city":"Bratislava","cityId":"Bratislava","country":"Slovakia","lat":48.15,"lng":17.12,"scale":1.18}},{"type":"Feature","geometry":{"type":"Point","coordinates":[15.28,-4.26]},"properties":{"city":"Brazzaville","cityId":"Brazzaville","country":"Congo (Brazzaville)","lat":-4.26,"lng":15.28,"scale":1.79}},{"type":"Feature","geometry":{"type":"Point","coordinates":[23.7,52.1]},"properties":{"city":"Brest","cityId":"Brest","country":"Belarus","lat":52.1,"lng":23.7,"scale":1.06}},{"type":"Feature","geometry":{"type":"Point","coordinates":[-73.2,41.18]},"properties":{"city":"Bridgeport","cityId":"Bridgeport","country":"United States of America","lat":41.18,"lng":-73.2,"scale":1.6}},{"type":"Feature","geometry":{"type":"Point","coordinates":[153.04,-27.46]},"properties":{"city":"Brisbane","cityId":"Brisbane","country":"Australia","lat":-27.46,"lng":153.04,"scale":2.03}},{"type":"Feature","geometry":{"type":"Point","coordinates":[4.33,50.83]},"properties":{"city":"Brussels","cityId":"Brussels","country":"Belgium","lat":50.83,"lng":4.33,"scale":1.97}},{"type":"Feature","geometry":{"type":"Point","coordinates":[34.43,53.26]},"properties":{"city":"Bryansk","cityId":"Bryansk","country":"Russia","lat":53.26,"lng":34.43,"scale":1.18}},{"type":"Feature","geometry":{"type":"Point","coordinates":[26.1,44.43]},"properties":{"city":"Bucharest","cityId":"Bucharest","country":"Romania","lat":44.43,"lng":26.1,"scale":2.06}},{"type":"Feature","geometry":{"type":"Point","coordinates":[19.08,47.5]},"properties":{"city":"Budapest","cityId":"Budapest","country":"Hungary","lat":47.5,"lng":19.08,"scale":1.95}},{"type":"Feature","geometry":{"type":"Point","coordinates":[-58.4,-34.6]},"properties":{"city":"Buenos Aires","cityId":"Buenos Aires","country":"Argentina","lat":-34.6,"lng":-58.4,"scale":4.65}},{"type":"Feature","geometry":{"type":"Point","coordinates":[-78.88,42.88]},"properties":{"city":"Buffalo","cityId":"Buffalo","country":"United States of America","lat":42.88,"lng":-78.88,"scale":1.6}},{"type":"Feature","geometry":{"type":"Point","coordinates":[29.36,-3.38]},"properties":{"city":"Bujumbura","cityId":"Bujumbura","country":"Burundi","lat":-3.38,"lng":29.36,"scale":1.09}},{"type":"Feature","geometry":{"type":"Point","coordinates":[64.43,39.78]},"properties":{"city":"Bukhara","cityId":"Bukhara","country":"Uzbekistan","lat":39.78,"lng":64.43,"scale":1.08}},{"type":"Feature","geometry":{"type":"Point","coordinates":[28.58,-20.17]},"properties":{"city":"Bulawayo","cityId":"Bulawayo","country":"Zimbabwe","lat":-20.17,"lng":28.58,"scale":1.4}},{"type":"Feature","geometry":{"type":"Point","coordinates":[32.29,31.26]},"properties":{"city":"Bur Said","cityId":"Bur Said","country":"Egypt","lat":31.26,"lng":32.29,"scale":1.34}},{"type":"Feature","geometry":{"type":"Point","coordinates":[29.07,40.2]},"properties":{"city":"Bursa","cityId":"Bursa","country":"Turkey","lat":40.2,"lng":29.07,"scale":1.86}},{"type":"Feature","geometry":{"type":"Point","coordinates":[129.01,35.1]},"properties":{"city":"Busan","cityId":"Busan","country":"South Korea","lat":35.1,"lng":129.01,"scale":2.62}},{"type":"Feature","geometry":{"type":"Point","coordinates":[29.28,0.13]},"properties":{"city":"Butembo","cityId":"Butembo","country":"Congo (Kinshasa)","lat":0.13,"lng":29.28,"scale":1.04}},{"type":"Feature","geometry":{"type":"Point","coordinates":[9.1,39.22]},"properties":{"city":"Cagliari","cityId":"Cagliari","country":"Italy","lat":39.22,"lng":9.1,"scale":1.05}},{"type":"Feature","geometry":{"type":"Point","coordinates":[31.25,30.05]},"properties":{"city":"Cairo","cityId":"Cairo","country":"Egypt","lat":30.05,"lng":31.25,"scale":4.5}},{"type":"Feature","geometry":{"type":"Point","coordinates":[-114.08,51.08]},"properties":{"city":"Calgary","cityId":"Calgary","country":"Canada","lat":51.08,"lng":-114.08,"scale":1.66}},{"type":"Feature","geometry":{"type":"Point","coordinates":[-76.5,3.4]},"properties":{"city":"Cali","cityId":"Cali","country":"Colombia","lat":3.4,"lng":-76.5,"scale":2.19}},{"type":"Feature","geometry":{"type":"Point","coordinates":[-47.1,-22.9]},"properties":{"city":"Campinas","cityId":"Campinas","country":"Brazil","lat":-22.9,"lng":-47.1,"scale":2.39}},{"type":"Feature","geometry":{"type":"Point","coordinates":[-54.62,-20.45]},"properties":{"city":"Campo Grande","cityId":"Campo Grande","country":"Brazil","lat":-20.45,"lng":-54.62,"scale":1.45}},{"type":"Feature","geometry":{"type":"Point","coordinates":[149.13,-35.28]},"properties":{"city":"Canberra","cityId":"Canberra","country":"Australia","lat":-35.28,"lng":149.13,"scale":1.09}},{"type":"Feature","geometry":{"type":"Point","coordinates":[-86.83,21.17]},"properties":{"city":"Cancun","cityId":"Cancun","country":"Mexico","lat":21.17,"lng":-86.83,"scale":1.28}},{"type":"Feature","geometry":{"type":"Point","coordinates":[18.43,-33.92]},"properties":{"city":"Cape Town","cityId":"Cape Town","country":"South Africa","lat":-33.92,"lng":18.43,"scale":2.54}},{"type":"Feature","geometry":{"type":"Point","coordinates":[-66.92,10.5]},"properties":{"city":"Caracas","cityId":"Caracas","country":"Venezuela","lat":10.5,"lng":-66.92,"scale":2.46}},{"type":"Feature","geometry":{"type":"Point","coordinates":[-3.23,51.5]},"properties":{"city":"Cardiff","cityId":"Cardiff","country":"United Kingdom","lat":51.5,"lng":-3.23,"scale":1.51}},{"type":"Feature","geometry":{"type":"Point","coordinates":[-75.51,10.4]},"properties":{"city":"Cartagena","cityId":"Cartagena","country":"Colombia","lat":10.4,"lng":-75.51,"scale":1.52}},{"type":"Feature","geometry":{"type":"Point","coordinates":[-7.62,33.6]},"properties":{"city":"Casablanca","cityId":"Casablanca","country":"Morocco","lat":33.6,"lng":-7.62,"scale":2.52}},{"type":"Feature","geometry":{"type":"Point","coordinates":[15.08,37.5]},"properties":{"city":"Catania","cityId":"Catania","country":"Italy","lat":37.5,"lng":15.08,"scale":1.38}},{"type":"Feature","geometry":{"type":"Point","coordinates":[-51.17,-29.18]},"properties":{"city":"Caxias do Sul","cityId":"Caxias do Sul","country":"Brazil","lat":-29.18,"lng":-51.17,"scale":1.14}},{"type":"Feature","geometry":{"type":"Point","coordinates":[123.9,10.32]},"properties":{"city":"Cebu","cityId":"Cebu","country":"Philippines","lat":10.32,"lng":123.9,"scale":1.48}},{"type":"Feature","geometry":{"type":"Point","coordinates":[76.78,30.72]},"properties":{"city":"Chandigarh","cityId":"Chandigarh","country":"India","lat":30.72,"lng":76.78,"scale":1.58}},{"type":"Feature","geometry":{"type":"Point","coordinates":[125.34,43.87]},"properties":{"city":"Changchun","cityId":"Changchun","country":"China","lat":43.87,"lng":125.34,"scale":2.53}},{"type":"Feature","geometry":{"type":"Point","coordinates":[112.97,28.2]},"properties":{"city":"Changsha","cityId":"Changsha","country":"China","lat":28.2,"lng":112.97,"scale":2.32}},{"type":"Feature","geometry":{"type":"Point","coordinates":[61.44,55.15]},"properties":{"city":"Chelyabinsk","cityId":"Chelyabinsk","country":"Russia","lat":55.15,"lng":61.44,"scale":1.65}},{"type":"Feature","geometry":{"type":"Point","coordinates":[104.07,30.67]},"properties":{"city":"Chengdu","cityId":"Chengdu","country":"China","lat":30.67,"lng":104.07,"scale":2.82}},{"type":"Feature","geometry":{"type":"Point","coordinates":[80.28,13.09]},"properties":{"city":"Chennai","cityId":"Chennai","country":"India","lat":13.09,"lng":80.28,"scale":3.58}},{"type":"Feature","geometry":{"type":"Point","coordinates":[98.98,18.8]},"properties":{"city":"Chiang Mai","cityId":"Chiang Mai","country":"Thailand","lat":18.8,"lng":98.98,"scale":1.15}},{"type":"Feature","geometry":{"type":"Point","coordinates":[-87.75,41.83]},"properties":{"city":"Chicago","cityId":"Chicago","country":"United States of America","lat":41.83,"lng":-87.75,"scale":3.97}},{"type":"Feature","geometry":{"type":"Point","coordinates":[118.95,42.27]},"properties":{"city":"Chifeng","cityId":"Chifeng","country":"China","lat":42.27,"lng":118.95,"scale":1.75}},{"type":"Feature","geometry":{"type":"Point","coordinates":[-106.08,28.64]},"properties":{"city":"Chihuahua","cityId":"Chihuahua","country":"Mexico","lat":28.64,"lng":-106.08,"scale":1.46}},{"type":"Feature","geometry":{"type":"Point","coordinates":[-78.57,-9.07]},"properties":{"city":"Chimbote","cityId":"Chimbote","country":"Peru","lat":-9.07,"lng":-78.57,"scale":1.11}},{"type":"Feature","geometry":{"type":"Point","coordinates":[28.86,47.01]},"properties":{"city":"Chisinau","cityId":"Chisinau","country":"Moldova","lat":47.01,"lng":28.86,"scale":1.39}},{"type":"Feature","geometry":{"type":"Point","coordinates":[113.47,52.06]},"properties":{"city":"Chita","cityId":"Chita","country":"Russia","lat":52.06,"lng":113.47,"scale":1.07}},{"type":"Feature","geometry":{"type":"Point","coordinates":[91.8,22.33]},"properties":{"city":"Chittagong","cityId":"Chittagong","country":"Bangladesh","lat":22.33,"lng":91.8,"scale":2.93}},{"type":"Feature","geometry":{"type":"Point","coordinates":[31.1,-18]},"properties":{"city":"Chitungwiza","cityId":"Chitungwiza","country":"Zimbabwe","lat":-18,"lng":31.1,"scale":1.1}},{"type":"Feature","geometry":{"type":"Point","coordinates":[106.59,29.56]},"properties":{"city":"Chongqing","cityId":"Chongqing","country":"China","lat":29.56,"lng":106.59,"scale":3.43}},{"type":"Feature","geometry":{"type":"Point","coordinates":[172.63,-43.54]},"properties":{"city":"Christchurch","cityId":"Christchurch","country":"New Zealand","lat":-43.54,"lng":172.63,"scale":1.12}},{"type":"Feature","geometry":{"type":"Point","coordinates":[-84.46,39.16]},"properties":{"city":"Cincinnati","cityId":"Cincinnati","country":"United States of America","lat":39.16,"lng":-84.46,"scale":1.93}},{"type":"Feature","geometry":{"type":"Point","coordinates":[-62.62,8.37]},"properties":{"city":"Ciudad Guayana","cityId":"Ciudad Guayana","country":"Venezuela","lat":8.37,"lng":-62.62,"scale":1.43}},{"type":"Feature","geometry":{"type":"Point","coordinates":[-54.62,-25.52]},"properties":{"city":"Ciudad del Este","cityId":"Ciudad del Este","country":"Paraguay","lat":-25.52,"lng":-54.62,"scale":1.08}},{"type":"Feature","geometry":{"type":"Point","coordinates":[-81.69,41.47]},"properties":{"city":"Cleveland","cityId":"Cleveland","country":"United States of America","lat":41.47,"lng":-81.69,"scale":2.04}},{"type":"Feature","geometry":{"type":"Point","coordinates":[76.95,11]},"properties":{"city":"Coimbatore","cityId":"Coimbatore","country":"India","lat":11,"lng":76.95,"scale":1.95}},{"type":"Feature","geometry":{"type":"Point","coordinates":[-104.79,38.86]},"properties":{"city":"Colorado Springs","cityId":"Colorado Springs","country":"United States of America","lat":38.86,"lng":-104.79,"scale":1.24}},{"type":"Feature","geometry":{"type":"Point","coordinates":[-80.9,34.04]},"properties":{"city":"Columbia","cityId":"Columbia","country":"United States of America","lat":34.04,"lng":-80.9,"scale":1.16}},{"type":"Feature","geometry":{"type":"Point","coordinates":[-13.68,9.53]},"properties":{"city":"Conakry","cityId":"Conakry","country":"Guinea","lat":9.53,"lng":-13.68,"scale":1.86}},{"type":"Feature","geometry":{"type":"Point","coordinates":[-73.05,-36.83]},"properties":{"city":"Concepcion","cityId":"Concepcion","country":"Chile","lat":-36.83,"lng":-73.05,"scale":1.53}},{"type":"Feature","geometry":{"type":"Point","coordinates":[28.61,44.2]},"properties":{"city":"Constanta","cityId":"Constanta","country":"Romania","lat":44.2,"lng":28.61,"scale":1.06}},{"type":"Feature","geometry":{"type":"Point","coordinates":[6.6,36.36]},"properties":{"city":"Constantine","cityId":"Constantine","country":"Algeria","lat":36.36,"lng":6.6,"scale":1.33}},{"type":"Feature","geometry":{"type":"Point","coordinates":[-64.18,-31.4]},"properties":{"city":"Cordoba","cityId":"Cordoba (Argentina)","country":"Argentina","lat":-31.4,"lng":-64.18,"scale":1.84}},{"type":"Feature","geometry":{"type":"Point","coordinates":[-4.77,37.88]},"properties":{"city":"Cordoba","cityId":"Cordoba (Spain)","country":"Spain","lat":37.88,"lng":-4.77,"scale":1.08}},{"type":"Feature","geometry":{"type":"Point","coordinates":[-97.4,27.74]},"properties":{"city":"Corpus Christi","cityId":"Corpus Christi","country":"United States of America","lat":27.74,"lng":-97.4,"scale":1.03}},{"type":"Feature","geometry":{"type":"Point","coordinates":[2.52,6.4]},"properties":{"city":"Cotonou","cityId":"Cotonou","country":"Benin","lat":6.4,"lng":2.52,"scale":1.44}},{"type":"Feature","geometry":{"type":"Point","coordinates":[-79,-2.9]},"properties":{"city":"Cuenca","cityId":"Cuenca","country":"Ecuador","lat":-2.9,"lng":-79,"scale":1.04}},{"type":"Feature","geometry":{"type":"Point","coordinates":[-56.08,-15.57]},"properties":{"city":"Cuiaba","cityId":"Cuiaba","country":"Brazil","lat":-15.57,"lng":-56.08,"scale":1.47}},{"type":"Feature","geometry":{"type":"Point","coordinates":[-107.38,24.83]},"properties":{"city":"Culiacan","cityId":"Culiacan","country":"Mexico","lat":24.83,"lng":-107.38,"scale":1.47}},{"type":"Feature","geometry":{"type":"Point","coordinates":[-49.32,-25.42]},"properties":{"city":"Curitiba","cityId":"Curitiba","country":"Brazil","lat":-25.42,"lng":-49.32,"scale":2.49}},{"type":"Feature","geometry":{"type":"Point","coordinates":[-71.97,-13.53]},"properties":{"city":"Cusco","cityId":"Cusco","country":"Peru","lat":-13.53,"lng":-71.97,"scale":1.12}},{"type":"Feature","geometry":{"type":"Point","coordinates":[85.89,20.47]},"properties":{"city":"Cuttack","cityId":"Cuttack","country":"India","lat":20.47,"lng":85.89,"scale":1.31}},{"type":"Feature","geometry":{"type":"Point","coordinates":[108.25,16.06]},"properties":{"city":"Da Nang","cityId":"Da Nang","country":"Vietnam","lat":16.06,"lng":108.25,"scale":1.59}},{"type":"Feature","geometry":{"type":"Point","coordinates":[127.43,36.34]},"properties":{"city":"Daejeon","cityId":"Daejeon","country":"South Korea","lat":36.34,"lng":127.43,"scale":1.85}},{"type":"Feature","geometry":{"type":"Point","coordinates":[-17.47,14.72]},"properties":{"city":"Dakar","cityId":"Dakar","country":"Senegal","lat":14.72,"lng":-17.47,"scale":2.32}},{"type":"Feature","geometry":{"type":"Point","coordinates":[121.63,38.92]},"properties":{"city":"Dalian","cityId":"Dalian","country":"China","lat":38.92,"lng":121.63,"scale":2.52}},{"type":"Feature","geometry":{"type":"Point","coordinates":[-96.84,32.82]},"properties":{"city":"Dallas","cityId":"Dallas","country":"United States of America","lat":32.82,"lng":-96.84,"scale":3.01}},{"type":"Feature","geometry":{"type":"Point","coordinates":[36.3,33.5]},"properties":{"city":"Damascus","cityId":"Damascus","country":"Syria","lat":33.5,"lng":36.3,"scale":2.27}},{"type":"Feature","geometry":{"type":"Point","coordinates":[125,46.58]},"properties":{"city":"Daqing","cityId":"Daqing","country":"China","lat":46.58,"lng":125,"scale":1.95}},{"type":"Feature","geometry":{"type":"Point","coordinates":[39.27,-6.8]},"properties":{"city":"Dar es Salaam","cityId":"Dar es Salaam","country":"Tanzania","lat":-6.8,"lng":39.27,"scale":2.44}},{"type":"Feature","geometry":{"type":"Point","coordinates":[125.63,7.11]},"properties":{"city":"Davao","cityId":"Davao","country":"Philippines","lat":7.11,"lng":125.63,"scale":1.81}},{"type":"Feature","geometry":{"type":"Point","coordinates":[77.23,28.67]},"properties":{"city":"Delhi","cityId":"Delhi","country":"India","lat":28.67,"lng":77.23,"scale":5.15}},{"type":"Feature","geometry":{"type":"Point","coordinates":[-104.98,39.74]},"properties":{"city":"Denver","cityId":"Denver","country":"United States of America","lat":39.74,"lng":-104.98,"scale":2.21}},{"type":"Feature","geometry":{"type":"Point","coordinates":[-93.62,41.58]},"properties":{"city":"Des Moines","cityId":"Des Moines","country":"United States of America","lat":41.58,"lng":-93.62,"scale":1.14}},{"type":"Feature","geometry":{"type":"Point","coordinates":[-83.08,42.33]},"properties":{"city":"Detroit","cityId":"Detroit","country":"United States of America","lat":42.33,"lng":-83.08,"scale":2.81}},{"type":"Feature","geometry":{"type":"Point","coordinates":[90.41,23.72]},"properties":{"city":"Dhaka","cityId":"Dhaka","country":"Bangladesh","lat":23.72,"lng":90.41,"scale":4.65}},{"type":"Feature","geometry":{"type":"Point","coordinates":[86.42,23.8]},"properties":{"city":"Dhanbad","cityId":"Dhanbad","country":"India","lat":23.8,"lng":86.42,"scale":1.73}},{"type":"Feature","geometry":{"type":"Point","coordinates":[41.86,9.59]},"properties":{"city":"Dire Dawa","cityId":"Dire Dawa","country":"Ethiopia","lat":9.59,"lng":41.86,"scale":1}},{"type":"Feature","geometry":{"type":"Point","coordinates":[43.15,11.6]},"properties":{"city":"Djibouti","cityId":"Djibouti","country":"Djibouti","lat":11.6,"lng":43.15,"scale":1.55}},{"type":"Feature","geometry":{"type":"Point","coordinates":[35,48.48]},"properties":{"city":"Dnipro","cityId":"Dnipro","country":"Ukraine","lat":48.48,"lng":35,"scale":1.62}},{"type":"Feature","geometry":{"type":"Point","coordinates":[51.53,25.29]},"properties":{"city":"Doha","cityId":"Doha","country":"Qatar","lat":25.29,"lng":51.53,"scale":1.84}},{"type":"Feature","geometry":{"type":"Point","coordinates":[37.83,48]},"properties":{"city":"Donetsk","cityId":"Donetsk","country":"Ukraine","lat":48,"lng":37.83,"scale":1.59}},{"type":"Feature","geometry":{"type":"Point","coordinates":[113.74,23.05]},"properties":{"city":"Dongguan","cityId":"Dongguan","country":"China","lat":23.05,"lng":113.74,"scale":2.93}},{"type":"Feature","geometry":{"type":"Point","coordinates":[9.71,4.06]},"properties":{"city":"Douala","cityId":"Douala","country":"Cameroon","lat":4.06,"lng":9.71,"scale":2.05}},{"type":"Feature","geometry":{"type":"Point","coordinates":[13.75,51.05]},"properties":{"city":"Dresden","cityId":"Dresden","country":"Germany","lat":51.05,"lng":13.75,"scale":1.34}},{"type":"Feature","geometry":{"type":"Point","coordinates":[55.28,25.23]},"properties":{"city":"Dubai","cityId":"Dubai","country":"United Arab Emirates","lat":25.23,"lng":55.28,"scale":1.8}},{"type":"Feature","geometry":{"type":"Point","coordinates":[-6.25,53.33]},"properties":{"city":"Dublin","cityId":"Dublin","country":"Ireland","lat":53.33,"lng":-6.25,"scale":1.63}},{"type":"Feature","geometry":{"type":"Point","coordinates":[30.98,-29.87]},"properties":{"city":"Durban","cityId":"Durban","country":"South Africa","lat":-29.87,"lng":30.98,"scale":2.37}},{"type":"Feature","geometry":{"type":"Point","coordinates":[68.77,38.56]},"properties":{"city":"Dushanbe","cityId":"Dushanbe","country":"Tajikistan","lat":38.56,"lng":68.77,"scale":1.64}},{"type":"Feature","geometry":{"type":"Point","coordinates":[27.87,-32.97]},"properties":{"city":"East London","cityId":"East London","country":"South Africa","lat":-32.97,"lng":27.87,"scale":1.1}},{"type":"Feature","geometry":{"type":"Point","coordinates":[-3.22,55.95]},"properties":{"city":"Edinburgh","cityId":"Edinburgh","country":"United Kingdom","lat":55.95,"lng":-3.22,"scale":1.25}},{"type":"Feature","geometry":{"type":"Point","coordinates":[-113.5,53.55]},"properties":{"city":"Edmonton","cityId":"Edmonton","country":"Canada","lat":53.55,"lng":-113.5,"scale":1.63}},{"type":"Feature","geometry":{"type":"Point","coordinates":[30.84,29.31]},"properties":{"city":"El Faiyum","cityId":"El Faiyum","country":"Egypt","lat":29.31,"lng":30.84,"scale":1.07}},{"type":"Feature","geometry":{"type":"Point","coordinates":[25.35,13.63]},"properties":{"city":"El Fasher","cityId":"El Fasher","country":"Sudan","lat":13.63,"lng":25.35,"scale":1}},{"type":"Feature","geometry":{"type":"Point","coordinates":[30.22,13.18]},"properties":{"city":"El Obeid","cityId":"El Obeid","country":"Sudan","lat":13.18,"lng":30.22,"scale":1.15}},{"type":"Feature","geometry":{"type":"Point","coordinates":[-106.51,31.78]},"properties":{"city":"El Paso","cityId":"El Paso","country":"United States of America","lat":31.78,"lng":-106.51,"scale":1.44}},{"type":"Feature","geometry":{"type":"Point","coordinates":[35.27,0.52]},"properties":{"city":"Eldoret","cityId":"Eldoret","country":"Kenya","lat":0.52,"lng":35.27,"scale":1.11}},{"type":"Feature","geometry":{"type":"Point","coordinates":[7.5,6.45]},"properties":{"city":"Enugu","cityId":"Enugu","country":"Nigeria","lat":6.45,"lng":7.5,"scale":1.39}},{"type":"Feature","geometry":{"type":"Point","coordinates":[77.32,28.43]},"properties":{"city":"Faridabad","cityId":"Faridabad","country":"India","lat":28.43,"lng":77.32,"scale":1.81}},{"type":"Feature","geometry":{"type":"Point","coordinates":[-38.97,-12.25]},"properties":{"city":"Feira de Santana","cityId":"Feira de Santana","country":"Brazil","lat":-12.25,"lng":-38.97,"scale":1.23}},{"type":"Feature","geometry":{"type":"Point","coordinates":[-5,34.05]},"properties":{"city":"Fez","cityId":"Fez","country":"Morocco","lat":34.05,"lng":-5,"scale":1.6}},{"type":"Feature","geometry":{"type":"Point","coordinates":[11.25,43.78]},"properties":{"city":"Florence","cityId":"Florence","country":"Italy","lat":43.78,"lng":11.25,"scale":1.86}},{"type":"Feature","geometry":{"type":"Point","coordinates":[-48.52,-27.58]},"properties":{"city":"Florianopolis","cityId":"Florianopolis","country":"Brazil","lat":-27.58,"lng":-48.52,"scale":1.61}},{"type":"Feature","geometry":{"type":"Point","coordinates":[-61.08,14.61]},"properties":{"city":"Fort-de-France","cityId":"Fort-de-France","country":"France","lat":14.61,"lng":-61.08,"scale":1}},{"type":"Feature","geometry":{"type":"Point","coordinates":[-38.58,-3.75]},"properties":{"city":"Fortaleza","cityId":"Fortaleza","country":"Brazil","lat":-3.75,"lng":-38.58,"scale":2.66}},{"type":"Feature","geometry":{"type":"Point","coordinates":[8.68,50.1]},"properties":{"city":"Frankfurt","cityId":"Frankfurt","country":"Germany","lat":50.1,"lng":8.68,"scale":2.43}},{"type":"Feature","geometry":{"type":"Point","coordinates":[-13.23,8.47]},"properties":{"city":"Freetown","cityId":"Freetown","country":"Sierra Leone","lat":8.47,"lng":-13.23,"scale":1.49}},{"type":"Feature","geometry":{"type":"Point","coordinates":[-119.77,36.75]},"properties":{"city":"Fresno","cityId":"Fresno","country":"United States of America","lat":36.75,"lng":-119.77,"scale":1.34}},{"type":"Feature","geometry":{"type":"Point","coordinates":[-97.34,32.74]},"properties":{"city":"Ft. Worth","cityId":"Ft. Worth","country":"United States of America","lat":32.74,"lng":-97.34,"scale":1.83}},{"type":"Feature","geometry":{"type":"Point","coordinates":[130.41,33.6]},"properties":{"city":"Fukuoka","cityId":"Fukuoka","country":"Japan","lat":33.6,"lng":130.41,"scale":2.39}},{"type":"Feature","geometry":{"type":"Point","coordinates":[119.3,26.08]},"properties":{"city":"Fuzhou","cityId":"Fuzhou","country":"China","lat":26.08,"lng":119.3,"scale":2.32}},{"type":"Feature","geometry":{"type":"Point","coordinates":[13.39,9.3]},"properties":{"city":"Garoua","cityId":"Garoua","country":"Cameroon","lat":9.3,"lng":13.39,"scale":1.19}},{"type":"Feature","geometry":{"type":"Point","coordinates":[34.45,31.53]},"properties":{"city":"Gaza","cityId":"Gaza","country":"Palestine","lat":31.53,"lng":34.45,"scale":1.25}},{"type":"Feature","geometry":{"type":"Point","coordinates":[18.64,54.36]},"properties":{"city":"Gdansk","cityId":"Gdansk","country":"Poland","lat":54.36,"lng":18.64,"scale":1.43}},{"type":"Feature","geometry":{"type":"Point","coordinates":[125.17,6.11]},"properties":{"city":"General Santos","cityId":"General Santos","country":"Philippines","lat":6.11,"lng":125.17,"scale":1.56}},{"type":"Feature","geometry":{"type":"Point","coordinates":[6.14,46.21]},"properties":{"city":"Geneva","cityId":"Geneva","country":"Switzerland","lat":46.21,"lng":6.14,"scale":1.73}},{"type":"Feature","geometry":{"type":"Point","coordinates":[8.93,44.41]},"properties":{"city":"Genoa","cityId":"Genoa","country":"Italy","lat":44.41,"lng":8.93,"scale":1.36}},{"type":"Feature","geometry":{"type":"Point","coordinates":[100.33,5.41]},"properties":{"city":"George Town","cityId":"George Town","country":"Malaysia","lat":5.41,"lng":100.33,"scale":2.28}},{"type":"Feature","geometry":{"type":"Point","coordinates":[-58.17,6.8]},"properties":{"city":"Georgetown","cityId":"Georgetown","country":"Guyana","lat":6.8,"lng":-58.17,"scale":1.02}},{"type":"Feature","geometry":{"type":"Point","coordinates":[77.41,28.66]},"properties":{"city":"Ghaziabad","cityId":"Ghaziabad","country":"India","lat":28.66,"lng":77.41,"scale":1.78}},{"type":"Feature","geometry":{"type":"Point","coordinates":[136.76,35.42]},"properties":{"city":"Gifu","cityId":"Gifu","country":"Japan","lat":35.42,"lng":136.76,"scale":1.17}},{"type":"Feature","geometry":{"type":"Point","coordinates":[-4.25,55.87]},"properties":{"city":"Glasgow","cityId":"Glasgow","country":"United Kingdom","lat":55.87,"lng":-4.25,"scale":1.69}},{"type":"Feature","geometry":{"type":"Point","coordinates":[-49.3,-16.72]},"properties":{"city":"Goiania","cityId":"Goiania","country":"Brazil","lat":-16.72,"lng":-49.3,"scale":2.09}},{"type":"Feature","geometry":{"type":"Point","coordinates":[153.45,-28.08]},"properties":{"city":"Gold Coast","cityId":"Gold Coast","country":"Australia","lat":-28.08,"lng":153.45,"scale":1.27}},{"type":"Feature","geometry":{"type":"Point","coordinates":[123.07,0.55]},"properties":{"city":"Gorontalo","cityId":"Gorontalo","country":"Indonesia","lat":0.55,"lng":123.07,"scale":1.12}},{"type":"Feature","geometry":{"type":"Point","coordinates":[-103.33,20.67]},"properties":{"city":"Guadalajara","cityId":"Guadalajara","country":"Mexico","lat":20.67,"lng":-103.33,"scale":2.84}},{"type":"Feature","geometry":{"type":"Point","coordinates":[113.33,23.14]},"properties":{"city":"Guangzhou","cityId":"Guangzhou","country":"China","lat":23.14,"lng":113.33,"scale":3.94}},{"type":"Feature","geometry":{"type":"Point","coordinates":[-90.53,14.62]},"properties":{"city":"Guatemala","cityId":"Guatemala","country":"Guatemala","lat":14.62,"lng":-90.53,"scale":1.61}},{"type":"Feature","geometry":{"type":"Point","coordinates":[-79.92,-2.22]},"properties":{"city":"Guayaquil","cityId":"Guayaquil","country":"Ecuador","lat":-2.22,"lng":-79.92,"scale":2.29}},{"type":"Feature","geometry":{"type":"Point","coordinates":[110.28,25.28]},"properties":{"city":"Guilin","cityId":"Guilin","country":"China","lat":25.28,"lng":110.28,"scale":1.59}},{"type":"Feature","geometry":{"type":"Point","coordinates":[106.72,26.58]},"properties":{"city":"Guiyang","cityId":"Guiyang","country":"China","lat":26.58,"lng":106.72,"scale":2.68}},{"type":"Feature","geometry":{"type":"Point","coordinates":[74.19,32.16]},"properties":{"city":"Gujranwala","cityId":"Gujranwala","country":"Pakistan","lat":32.16,"lng":74.19,"scale":1.87}},{"type":"Feature","geometry":{"type":"Point","coordinates":[76.82,17.35]},"properties":{"city":"Gulbarga","cityId":"Gulbarga","country":"India","lat":17.35,"lng":76.82,"scale":1.23}},{"type":"Feature","geometry":{"type":"Point","coordinates":[91.77,26.16]},"properties":{"city":"Guwahati","cityId":"Guwahati","country":"India","lat":26.16,"lng":91.77,"scale":1.58}},{"type":"Feature","geometry":{"type":"Point","coordinates":[78.18,26.23]},"properties":{"city":"Gwalior","cityId":"Gwalior","country":"India","lat":26.23,"lng":78.18,"scale":1.58}},{"type":"Feature","geometry":{"type":"Point","coordinates":[126.91,35.17]},"properties":{"city":"Gwangju","cityId":"Gwangju","country":"South Korea","lat":35.17,"lng":126.91,"scale":1.83}},{"type":"Feature","geometry":{"type":"Point","coordinates":[106.68,20.83]},"properties":{"city":"Haiphong","cityId":"Haiphong","country":"Vietnam","lat":20.83,"lng":106.68,"scale":2.07}},{"type":"Feature","geometry":{"type":"Point","coordinates":[140.74,41.79]},"properties":{"city":"Hakodate","cityId":"Hakodate","country":"Japan","lat":41.79,"lng":140.74,"scale":1.06}},{"type":"Feature","geometry":{"type":"Point","coordinates":[-63.6,44.65]},"properties":{"city":"Halifax","cityId":"Halifax","country":"Canada","lat":44.65,"lng":-63.6,"scale":1.12}},{"type":"Feature","geometry":{"type":"Point","coordinates":[48.52,34.8]},"properties":{"city":"Hamadan","cityId":"Hamadan","country":"Iran","lat":34.8,"lng":48.52,"scale":1.27}},{"type":"Feature","geometry":{"type":"Point","coordinates":[10,53.55]},"properties":{"city":"Hamburg","cityId":"Hamburg","country":"Germany","lat":53.55,"lng":10,"scale":1.98}},{"type":"Feature","geometry":{"type":"Point","coordinates":[93.52,42.83]},"properties":{"city":"Hami","cityId":"Hami","country":"China","lat":42.83,"lng":93.52,"scale":1.06}},{"type":"Feature","geometry":{"type":"Point","coordinates":[114.48,36.58]},"properties":{"city":"Handan","cityId":"Handan","country":"China","lat":36.58,"lng":114.48,"scale":1.92}},{"type":"Feature","geometry":{"type":"Point","coordinates":[120.17,30.25]},"properties":{"city":"Hangzhou","cityId":"Hangzhou","country":"China","lat":30.25,"lng":120.17,"scale":2.47}},{"type":"Feature","geometry":{"type":"Point","coordinates":[105.85,21.03]},"properties":{"city":"Hanoi","cityId":"Hanoi","country":"Vietnam","lat":21.03,"lng":105.85,"scale":2.89}},{"type":"Feature","geometry":{"type":"Point","coordinates":[31.04,-17.82]},"properties":{"city":"Harare","cityId":"Harare","country":"Zimbabwe","lat":-17.82,"lng":31.04,"scale":1.9}},{"type":"Feature","geometry":{"type":"Point","coordinates":[126.65,45.75]},"properties":{"city":"Harbin","cityId":"Harbin","country":"China","lat":45.75,"lng":126.65,"scale":2.67}},{"type":"Feature","geometry":{"type":"Point","coordinates":[44.07,9.56]},"properties":{"city":"Hargeysa","cityId":"Hargeysa","country":"Somaliland","lat":9.56,"lng":44.07,"scale":1.23}},{"type":"Feature","geometry":{"type":"Point","coordinates":[-82.36,23.13]},"properties":{"city":"Havana","cityId":"Havana","country":"Cuba","lat":23.13,"lng":-82.36,"scale":2.16}},{"type":"Feature","geometry":{"type":"Point","coordinates":[117.28,31.85]},"properties":{"city":"Hefei","cityId":"Hefei","country":"China","lat":31.85,"lng":117.28,"scale":2.1}},{"type":"Feature","geometry":{"type":"Point","coordinates":[24.93,60.18]},"properties":{"city":"Helsinki","cityId":"Helsinki","country":"Finland","lat":60.18,"lng":24.93,"scale":1.66}},{"type":"Feature","geometry":{"type":"Point","coordinates":[112.59,26.88]},"properties":{"city":"Hengyang","cityId":"Hengyang","country":"China","lat":26.88,"lng":112.59,"scale":1.6}},{"type":"Feature","geometry":{"type":"Point","coordinates":[62.17,34.33]},"properties":{"city":"Herat","cityId":"Herat","country":"Afghanistan","lat":34.33,"lng":62.17,"scale":1.23}},{"type":"Feature","geometry":{"type":"Point","coordinates":[-110.95,29.1]},"properties":{"city":"Hermosillo","cityId":"Hermosillo","country":"Mexico","lat":29.1,"lng":-110.95,"scale":1.32}},{"type":"Feature","geometry":{"type":"Point","coordinates":[132.44,34.39]},"properties":{"city":"Hiroshima","cityId":"Hiroshima","country":"Japan","lat":34.39,"lng":132.44,"scale":2.1}},{"type":"Feature","geometry":{"type":"Point","coordinates":[106.7,10.78]},"properties":{"city":"Ho Chi Minh City","cityId":"Ho Chi Minh City","country":"Vietnam","lat":10.78,"lng":106.7,"scale":3.14}},{"type":"Feature","geometry":{"type":"Point","coordinates":[111.66,40.82]},"properties":{"city":"Hohhot","cityId":"Hohhot","country":"China","lat":40.82,"lng":111.66,"scale":1.97}},{"type":"Feature","geometry":{"type":"Point","coordinates":[114.19,22.3]},"properties":{"city":"Hong Kong","cityId":"Hong Kong","country":"Hong Kong S.A.R.","lat":22.3,"lng":114.19,"scale":3.59}},{"type":"Feature","geometry":{"type":"Point","coordinates":[-157.86,21.31]},"properties":{"city":"Honolulu","cityId":"Honolulu","country":"United States of America","lat":21.31,"lng":-157.86,"scale":1.46}},{"type":"Feature","geometry":{"type":"Point","coordinates":[79.93,37.1]},"properties":{"city":"Hotan","cityId":"Hotan","country":"China","lat":37.1,"lng":79.93,"scale":1.01}},{"type":"Feature","geometry":{"type":"Point","coordinates":[-95.34,29.82]},"properties":{"city":"Houston","cityId":"Houston","country":"United States of America","lat":29.82,"lng":-95.34,"scale":2.91}},{"type":"Feature","geometry":{"type":"Point","coordinates":[116.98,32.63]},"properties":{"city":"Huainan","cityId":"Huainan","country":"China","lat":32.63,"lng":116.98,"scale":1.84}},{"type":"Feature","geometry":{"type":"Point","coordinates":[119.03,33.58]},"properties":{"city":"Huaiyin","cityId":"Huaiyin","country":"China","lat":33.58,"lng":119.03,"scale":1.74}},{"type":"Feature","geometry":{"type":"Point","coordinates":[15.76,-12.75]},"properties":{"city":"Huambo","cityId":"Huambo","country":"Angola","lat":-12.75,"lng":15.76,"scale":1.65}},{"type":"Feature","geometry":{"type":"Point","coordinates":[-75.2,-12.08]},"properties":{"city":"Huancayo","cityId":"Huancayo","country":"Peru","lat":-12.08,"lng":-75.2,"scale":1.17}},{"type":"Feature","geometry":{"type":"Point","coordinates":[75.13,15.36]},"properties":{"city":"Hubli","cityId":"Hubli","country":"India","lat":15.36,"lng":75.13,"scale":1.53}},{"type":"Feature","geometry":{"type":"Point","coordinates":[78.48,17.4]},"properties":{"city":"Hyderabad","cityId":"Hyderabad (India)","country":"India","lat":17.4,"lng":78.48,"scale":3.41}},{"type":"Feature","geometry":{"type":"Point","coordinates":[68.37,25.38]},"properties":{"city":"Hyderabad","cityId":"Hyderabad (Pakistan)","country":"Pakistan","lat":25.38,"lng":68.37,"scale":1.84}},{"type":"Feature","geometry":{"type":"Point","coordinates":[27.57,47.17]},"properties":{"city":"Iasi","cityId":"Iasi","country":"Romania","lat":47.17,"lng":27.57,"scale":1.08}},{"type":"Feature","geometry":{"type":"Point","coordinates":[3.93,7.38]},"properties":{"city":"Ibadan","cityId":"Ibadan","country":"Nigeria","lat":7.38,"lng":3.93,"scale":2.33}},{"type":"Feature","geometry":{"type":"Point","coordinates":[-75.73,-14.07]},"properties":{"city":"Ica","cityId":"Ica","country":"Peru","lat":-14.07,"lng":-75.73,"scale":1.03}},{"type":"Feature","geometry":{"type":"Point","coordinates":[122.55,10.71]},"properties":{"city":"Iloilo","cityId":"Iloilo","country":"Philippines","lat":10.71,"lng":122.55,"scale":1.15}},{"type":"Feature","geometry":{"type":"Point","coordinates":[126.64,37.48]},"properties":{"city":"Incheon","cityId":"Incheon","country":"South Korea","lat":37.48,"lng":126.64,"scale":2.3}},{"type":"Feature","geometry":{"type":"Point","coordinates":[-86.17,39.75]},"properties":{"city":"Indianapolis","cityId":"Indianapolis","country":"United States of America","lat":39.75,"lng":-86.17,"scale":1.83}},{"type":"Feature","geometry":{"type":"Point","coordinates":[75.87,22.72]},"properties":{"city":"Indore","cityId":"Indore","country":"India","lat":22.72,"lng":75.87,"scale":2.1}},{"type":"Feature","geometry":{"type":"Point","coordinates":[-73.25,-3.75]},"properties":{"city":"Iquitos","cityId":"Iquitos","country":"Peru","lat":-3.75,"lng":-73.25,"scale":1.21}},{"type":"Feature","geometry":{"type":"Point","coordinates":[104.25,52.32]},"properties":{"city":"Irkutsk","cityId":"Irkutsk","country":"Russia","lat":52.32,"lng":104.25,"scale":1.32}},{"type":"Feature","geometry":{"type":"Point","coordinates":[51.7,32.7]},"properties":{"city":"Isfahan","cityId":"Isfahan","country":"Iran","lat":32.7,"lng":51.7,"scale":1.92}},{"type":"Feature","geometry":{"type":"Point","coordinates":[73.17,33.7]},"properties":{"city":"Islamabad","cityId":"Islamabad","country":"Pakistan","lat":33.7,"lng":73.17,"scale":1.46}},{"type":"Feature","geometry":{"type":"Point","coordinates":[29.01,41.1]},"properties":{"city":"Istanbul","cityId":"Istanbul","country":"Turkey","lat":41.1,"lng":29.01,"scale":4.17}},{"type":"Feature","geometry":{"type":"Point","coordinates":[27.15,38.44]},"properties":{"city":"Izmir","cityId":"Izmir","country":"Turkey","lat":38.44,"lng":27.15,"scale":2.32}},{"type":"Feature","geometry":{"type":"Point","coordinates":[79.96,23.18]},"properties":{"city":"Jabalpur","cityId":"Jabalpur","country":"India","lat":23.18,"lng":79.96,"scale":1.75}},{"type":"Feature","geometry":{"type":"Point","coordinates":[-90.18,32.3]},"properties":{"city":"Jackson","cityId":"Jackson","country":"United States of America","lat":32.3,"lng":-90.18,"scale":1}},{"type":"Feature","geometry":{"type":"Point","coordinates":[-81.67,30.33]},"properties":{"city":"Jacksonville","cityId":"Jacksonville","country":"United States of America","lat":30.33,"lng":-81.67,"scale":1.59}},{"type":"Feature","geometry":{"type":"Point","coordinates":[75.81,26.92]},"properties":{"city":"Jaipur","cityId":"Jaipur","country":"India","lat":26.92,"lng":75.81,"scale":2.43}},{"type":"Feature","geometry":{"type":"Point","coordinates":[106.83,-6.17]},"properties":{"city":"Jakarta","cityId":"Jakarta","country":"Indonesia","lat":-6.17,"lng":106.83,"scale":3.99}},{"type":"Feature","geometry":{"type":"Point","coordinates":[74.85,32.71]},"properties":{"city":"Jammu","cityId":"Jammu","country":"India","lat":32.71,"lng":74.85,"scale":1.46}},{"type":"Feature","geometry":{"type":"Point","coordinates":[86.2,22.79]},"properties":{"city":"Jamshedpur","cityId":"Jamshedpur","country":"India","lat":22.79,"lng":86.2,"scale":1.76}},{"type":"Feature","geometry":{"type":"Point","coordinates":[39.22,21.52]},"properties":{"city":"Jeddah","cityId":"Jeddah","country":"Saudi Arabia","lat":21.52,"lng":39.22,"scale":2.47}},{"type":"Feature","geometry":{"type":"Point","coordinates":[35.21,31.78]},"properties":{"city":"Jerusalem","cityId":"Jerusalem","country":"Israel","lat":31.78,"lng":35.21,"scale":1.61}},{"type":"Feature","geometry":{"type":"Point","coordinates":[130.35,46.83]},"properties":{"city":"Jiamusi","cityId":"Jiamusi","country":"China","lat":46.83,"lng":130.35,"scale":1.61}},{"type":"Feature","geometry":{"type":"Point","coordinates":[126.55,43.85]},"properties":{"city":"Jilin","cityId":"Jilin","country":"China","lat":43.85,"lng":126.55,"scale":2.24}},{"type":"Feature","geometry":{"type":"Point","coordinates":[117,36.67]},"properties":{"city":"Jinan","cityId":"Jinan","country":"China","lat":36.67,"lng":117,"scale":2.39}},{"type":"Feature","geometry":{"type":"Point","coordinates":[33.2,0.44]},"properties":{"city":"Jinja","cityId":"Jinja","country":"Uganda","lat":0.44,"lng":33.2,"scale":1.06}},{"type":"Feature","geometry":{"type":"Point","coordinates":[120.83,40.75]},"properties":{"city":"Jinxi","cityId":"Jinxi","country":"China","lat":40.75,"lng":120.83,"scale":2.26}},{"type":"Feature","geometry":{"type":"Point","coordinates":[130.97,45.3]},"properties":{"city":"Jixi","cityId":"Jixi","country":"China","lat":45.3,"lng":130.97,"scale":1.57}},{"type":"Feature","geometry":{"type":"Point","coordinates":[73.02,26.29]},"properties":{"city":"Jodhpur","cityId":"Jodhpur","country":"India","lat":26.29,"lng":73.02,"scale":1.59}},{"type":"Feature","geometry":{"type":"Point","coordinates":[28.03,-26.17]},"properties":{"city":"Johannesburg","cityId":"Johannesburg","country":"South Africa","lat":-26.17,"lng":28.03,"scale":2.61}},{"type":"Feature","geometry":{"type":"Point","coordinates":[75.57,31.33]},"properties":{"city":"Jullundur","cityId":"Jullundur","country":"India","lat":31.33,"lng":75.57,"scale":1.5}},{"type":"Feature","geometry":{"type":"Point","coordinates":[69.18,34.52]},"properties":{"city":"Kabul","cityId":"Kabul","country":"Afghanistan","lat":34.52,"lng":69.18,"scale":2.56}},{"type":"Feature","geometry":{"type":"Point","coordinates":[7.44,10.52]},"properties":{"city":"Kaduna","cityId":"Kaduna","country":"Nigeria","lat":10.52,"lng":7.44,"scale":1.83}},{"type":"Feature","geometry":{"type":"Point","coordinates":[20.5,54.7]},"properties":{"city":"Kaliningrad","cityId":"Kaliningrad","country":"Russia","lat":54.7,"lng":20.5,"scale":1.19}},{"type":"Feature","geometry":{"type":"Point","coordinates":[32.58,0.32]},"properties":{"city":"Kampala","cityId":"Kampala","country":"Uganda","lat":0.32,"lng":32.58,"scale":1.82}},{"type":"Feature","geometry":{"type":"Point","coordinates":[22.4,-5.89]},"properties":{"city":"Kananga","cityId":"Kananga","country":"Congo (Kinshasa)","lat":-5.89,"lng":22.4,"scale":1.44}},{"type":"Feature","geometry":{"type":"Point","coordinates":[65.69,31.61]},"properties":{"city":"Kandahar","cityId":"Kandahar","country":"Afghanistan","lat":31.61,"lng":65.69,"scale":1.41}},{"type":"Feature","geometry":{"type":"Point","coordinates":[8.52,12]},"properties":{"city":"Kano","cityId":"Kano","country":"Nigeria","lat":12,"lng":8.52,"scale":2.51}},{"type":"Feature","geometry":{"type":"Point","coordinates":[80.32,26.46]},"properties":{"city":"Kanpur","cityId":"Kanpur","country":"India","lat":26.46,"lng":80.32,"scale":2.52}},{"type":"Feature","geometry":{"type":"Point","coordinates":[-94.6,39.11]},"properties":{"city":"Kansas City","cityId":"Kansas City","country":"United States of America","lat":39.11,"lng":-94.6,"scale":1.85}},{"type":"Feature","geometry":{"type":"Point","coordinates":[120.27,22.63]},"properties":{"city":"Kaohsiung","cityId":"Kaohsiung","country":"Taiwan","lat":22.63,"lng":120.27,"scale":2.38}},{"type":"Feature","geometry":{"type":"Point","coordinates":[-16.1,14.15]},"properties":{"city":"Kaolack","cityId":"Kaolack","country":"Senegal","lat":14.15,"lng":-16.1,"scale":1.03}},{"type":"Feature","geometry":{"type":"Point","coordinates":[66.99,24.87]},"properties":{"city":"Karachi","cityId":"Karachi","country":"Pakistan","lat":24.87,"lng":66.99,"scale":4.54}},{"type":"Feature","geometry":{"type":"Point","coordinates":[75.97,39.48]},"properties":{"city":"Kashgar","cityId":"Kashgar","country":"China","lat":39.48,"lng":75.97,"scale":1.28}},{"type":"Feature","geometry":{"type":"Point","coordinates":[36.39,15.46]},"properties":{"city":"Kassala","cityId":"Kassala","country":"Sudan","lat":15.46,"lng":36.39,"scale":1.16}},{"type":"Feature","geometry":{"type":"Point","coordinates":[85.32,27.72]},"properties":{"city":"Kathmandu","cityId":"Kathmandu","country":"Nepal","lat":27.72,"lng":85.32,"scale":1.53}},{"type":"Feature","geometry":{"type":"Point","coordinates":[49.13,55.75]},"properties":{"city":"Kazan","cityId":"Kazan","country":"Russia","lat":55.75,"lng":49.13,"scale":1.66}},{"type":"Feature","geometry":{"type":"Point","coordinates":[86.09,55.34]},"properties":{"city":"Kemerovo","cityId":"Kemerovo","country":"Russia","lat":55.34,"lng":86.09,"scale":1.23}},{"type":"Feature","geometry":{"type":"Point","coordinates":[135.12,48.45]},"properties":{"city":"Khabarovsk","cityId":"Khabarovsk","country":"Russia","lat":48.45,"lng":135.12,"scale":1.31}},{"type":"Feature","geometry":{"type":"Point","coordinates":[36.25,50]},"properties":{"city":"Kharkiv","cityId":"Kharkiv","country":"Ukraine","lat":50,"lng":36.25,"scale":1.84}},{"type":"Feature","geometry":{"type":"Point","coordinates":[32.53,15.59]},"properties":{"city":"Khartoum","cityId":"Khartoum","country":"Sudan","lat":15.59,"lng":32.53,"scale":3}},{"type":"Feature","geometry":{"type":"Point","coordinates":[89.56,22.84]},"properties":{"city":"Khulna","cityId":"Khulna","country":"Bangladesh","lat":22.84,"lng":89.56,"scale":1.89}},{"type":"Feature","geometry":{"type":"Point","coordinates":[30.52,50.43]},"properties":{"city":"Kiev","cityId":"Kiev","country":"Ukraine","lat":50.43,"lng":30.52,"scale":2.36}},{"type":"Feature","geometry":{"type":"Point","coordinates":[30.06,-1.95]},"properties":{"city":"Kigali","cityId":"Kigali","country":"Rwanda","lat":-1.95,"lng":30.06,"scale":1.51}},{"type":"Feature","geometry":{"type":"Point","coordinates":[18.85,-5.03]},"properties":{"city":"Kikwit","cityId":"Kikwit","country":"Congo (Kinshasa)","lat":-5.03,"lng":18.85,"scale":1.35}},{"type":"Feature","geometry":{"type":"Point","coordinates":[-76.77,17.98]},"properties":{"city":"Kingston","cityId":"Kingston","country":"Jamaica","lat":17.98,"lng":-76.77,"scale":1.56}},{"type":"Feature","geometry":{"type":"Point","coordinates":[15.31,-4.33]},"properties":{"city":"Kinshasa","cityId":"Kinshasa","country":"Congo (Kinshasa)","lat":-4.33,"lng":15.31,"scale":3.73}},{"type":"Feature","geometry":{"type":"Point","coordinates":[44.39,35.47]},"properties":{"city":"Kirkuk","cityId":"Kirkuk","country":"Iraq","lat":35.47,"lng":44.39,"scale":1.33}},{"type":"Feature","geometry":{"type":"Point","coordinates":[49.67,58.59]},"properties":{"city":"Kirov","cityId":"Kirov","country":"Russia","lat":58.59,"lng":49.67,"scale":1.21}},{"type":"Feature","geometry":{"type":"Point","coordinates":[25.22,0.52]},"properties":{"city":"Kisangani","cityId":"Kisangani","country":"Congo (Kinshasa)","lat":0.52,"lng":25.22,"scale":1.31}},{"type":"Feature","geometry":{"type":"Point","coordinates":[28.22,-12.81]},"properties":{"city":"Kitwe","cityId":"Kitwe","country":"Zambia","lat":-12.81,"lng":28.22,"scale":1.16}},{"type":"Feature","geometry":{"type":"Point","coordinates":[-83.92,35.97]},"properties":{"city":"Knoxville","cityId":"Knoxville","country":"United States of America","lat":35.97,"lng":-83.92,"scale":1.37}},{"type":"Feature","geometry":{"type":"Point","coordinates":[12.56,55.68]},"properties":{"city":"Kobenhavn","cityId":"Kobenhavn","country":"Denmark","lat":55.68,"lng":12.56,"scale":1.64}},{"type":"Feature","geometry":{"type":"Point","coordinates":[76.22,10.02]},"properties":{"city":"Kochi","cityId":"Kochi (India)","country":"India","lat":10.02,"lng":76.22,"scale":1.87}},{"type":"Feature","geometry":{"type":"Point","coordinates":[133.54,33.56]},"properties":{"city":"Kochi","cityId":"Kochi (Japan)","country":"Japan","lat":33.56,"lng":133.54,"scale":1.09}},{"type":"Feature","geometry":{"type":"Point","coordinates":[74.22,16.7]},"properties":{"city":"Kolhapur","cityId":"Kolhapur","country":"India","lat":16.7,"lng":74.22,"scale":1.43}},{"type":"Feature","geometry":{"type":"Point","coordinates":[88.32,22.49]},"properties":{"city":"Kolkata","cityId":"Kolkata","country":"India","lat":22.49,"lng":88.32,"scale":4.97}},{"type":"Feature","geometry":{"type":"Point","coordinates":[25.47,-10.72]},"properties":{"city":"Kolwezi","cityId":"Kolwezi","country":"Congo (Kinshasa)","lat":-10.72,"lng":25.47,"scale":1.17}},{"type":"Feature","geometry":{"type":"Point","coordinates":[32.48,37.88]},"properties":{"city":"Konya","cityId":"Konya","country":"Turkey","lat":37.88,"lng":32.48,"scale":1.54}},{"type":"Feature","geometry":{"type":"Point","coordinates":[75.83,25.18]},"properties":{"city":"Kota","cityId":"Kota","country":"India","lat":25.18,"lng":75.83,"scale":1.49}},{"type":"Feature","geometry":{"type":"Point","coordinates":[75.77,11.25]},"properties":{"city":"Kozhikode","cityId":"Kozhikode","country":"India","lat":11.25,"lng":75.77,"scale":1.57}},{"type":"Feature","geometry":{"type":"Point","coordinates":[19.96,50.06]},"properties":{"city":"Krakow","cityId":"Krakow","country":"Poland","lat":50.06,"lng":19.96,"scale":1.44}},{"type":"Feature","geometry":{"type":"Point","coordinates":[39,45.02]},"properties":{"city":"Krasnodar","cityId":"Krasnodar","country":"Russia","lat":45.02,"lng":39,"scale":1.36}},{"type":"Feature","geometry":{"type":"Point","coordinates":[92.87,56.01]},"properties":{"city":"Krasnoyarsk","cityId":"Krasnoyarsk","country":"Russia","lat":56.01,"lng":92.87,"scale":1.55}},{"type":"Feature","geometry":{"type":"Point","coordinates":[101.7,3.17]},"properties":{"city":"Kuala Lumpur","cityId":"Kuala Lumpur","country":"Malaysia","lat":3.17,"lng":101.7,"scale":1.84}},{"type":"Feature","geometry":{"type":"Point","coordinates":[110.33,1.53]},"properties":{"city":"Kuching","cityId":"Kuching","country":"Malaysia","lat":1.53,"lng":110.33,"scale":1.3}},{"type":"Feature","geometry":{"type":"Point","coordinates":[102.68,25.07]},"properties":{"city":"Kunming","cityId":"Kunming","country":"China","lat":25.07,"lng":102.68,"scale":2.44}},{"type":"Feature","geometry":{"type":"Point","coordinates":[123.58,-10.18]},"properties":{"city":"Kupang","cityId":"Kupang","country":"Indonesia","lat":-10.18,"lng":123.58,"scale":1.04}},{"type":"Feature","geometry":{"type":"Point","coordinates":[47.98,29.37]},"properties":{"city":"Kuwait","cityId":"Kuwait","country":"Kuwait","lat":29.37,"lng":47.98,"scale":2.11}},{"type":"Feature","geometry":{"type":"Point","coordinates":[135.75,35.03]},"properties":{"city":"Kyoto","cityId":"Kyoto","country":"Japan","lat":35.03,"lng":135.75,"scale":2}},{"type":"Feature","geometry":{"type":"Point","coordinates":[-68.15,-16.5]},"properties":{"city":"La Paz","cityId":"La Paz","country":"Bolivia","lat":-16.5,"lng":-68.15,"scale":1.9}},{"type":"Feature","geometry":{"type":"Point","coordinates":[3.39,6.44]},"properties":{"city":"Lagos","cityId":"Lagos","country":"Nigeria","lat":6.44,"lng":3.39,"scale":4.06}},{"type":"Feature","geometry":{"type":"Point","coordinates":[74.35,31.56]},"properties":{"city":"Lahore","cityId":"Lahore","country":"Pakistan","lat":31.56,"lng":74.35,"scale":3.45}},{"type":"Feature","geometry":{"type":"Point","coordinates":[103.79,36.06]},"properties":{"city":"Lanzhou","cityId":"Lanzhou","country":"China","lat":36.06,"lng":103.79,"scale":2.31}},{"type":"Feature","geometry":{"type":"Point","coordinates":[-99.51,27.51]},"properties":{"city":"Laredo","cityId":"Laredo","country":"United States of America","lat":27.51,"lng":-99.51,"scale":1.19}},{"type":"Feature","geometry":{"type":"Point","coordinates":[68.21,27.56]},"properties":{"city":"Larkana","cityId":"Larkana","country":"Pakistan","lat":27.56,"lng":68.21,"scale":1.12}},{"type":"Feature","geometry":{"type":"Point","coordinates":[-15.43,28.1]},"properties":{"city":"Las Palmas","cityId":"Las Palmas","country":"Spain","lat":28.1,"lng":-15.43,"scale":1.14}},{"type":"Feature","geometry":{"type":"Point","coordinates":[-115.22,36.21]},"properties":{"city":"Las Vegas","cityId":"Las Vegas","country":"United States of America","lat":36.21,"lng":-115.22,"scale":2.01}},{"type":"Feature","geometry":{"type":"Point","coordinates":[-101.7,21.15]},"properties":{"city":"Leon","cityId":"Leon","country":"Mexico","lat":21.15,"lng":-101.7,"scale":1.85}},{"type":"Feature","geometry":{"type":"Point","coordinates":[9.46,0.39]},"properties":{"city":"Libreville","cityId":"Libreville","country":"Gabon","lat":0.39,"lng":9.46,"scale":1.31}},{"type":"Feature","geometry":{"type":"Point","coordinates":[3.08,50.65]},"properties":{"city":"Lille","cityId":"Lille","country":"France","lat":50.65,"lng":3.08,"scale":1.62}},{"type":"Feature","geometry":{"type":"Point","coordinates":[33.78,-13.98]},"properties":{"city":"Lilongwe","cityId":"Lilongwe","country":"Malawi","lat":-13.98,"lng":33.78,"scale":1.36}},{"type":"Feature","geometry":{"type":"Point","coordinates":[-77.05,-12.05]},"properties":{"city":"Lima","cityId":"Lima","country":"Peru","lat":-12.05,"lng":-77.05,"scale":3.77}},{"type":"Feature","geometry":{"type":"Point","coordinates":[118.33,35.08]},"properties":{"city":"Linyi","cityId":"Linyi","country":"China","lat":35.08,"lng":118.33,"scale":2.12}},{"type":"Feature","geometry":{"type":"Point","coordinates":[-9.14,38.72]},"properties":{"city":"Lisbon","cityId":"Lisbon","country":"Portugal","lat":38.72,"lng":-9.14,"scale":2.4}},{"type":"Feature","geometry":{"type":"Point","coordinates":[14.51,46.06]},"properties":{"city":"Ljubljana","cityId":"Ljubljana","country":"Slovenia","lat":46.06,"lng":14.51,"scale":1.07}},{"type":"Feature","geometry":{"type":"Point","coordinates":[1.22,6.13]},"properties":{"city":"Lome","cityId":"Lome","country":"Togo","lat":6.13,"lng":1.22,"scale":1.84}},{"type":"Feature","geometry":{"type":"Point","coordinates":[-0.12,51.5]},"properties":{"city":"London","cityId":"London","country":"United Kingdom","lat":51.5,"lng":-0.12,"scale":3.88}},{"type":"Feature","geometry":{"type":"Point","coordinates":[-118.18,33.99]},"properties":{"city":"Los Angeles","cityId":"Los Angeles","country":"United States of America","lat":33.99,"lng":-118.18,"scale":4.61}},{"type":"Feature","geometry":{"type":"Point","coordinates":[13.23,-8.84]},"properties":{"city":"Luanda","cityId":"Luanda","country":"Angola","lat":-8.84,"lng":13.23,"scale":3.11}},{"type":"Feature","geometry":{"type":"Point","coordinates":[27.48,-11.68]},"properties":{"city":"Lubumbashi","cityId":"Lubumbashi","country":"Congo (Kinshasa)","lat":-11.68,"lng":27.48,"scale":1.79}},{"type":"Feature","geometry":{"type":"Point","coordinates":[80.91,26.86]},"properties":{"city":"Lucknow","cityId":"Lucknow","country":"India","lat":26.86,"lng":80.91,"scale":2.36}},{"type":"Feature","geometry":{"type":"Point","coordinates":[75.87,30.93]},"properties":{"city":"Ludhiana","cityId":"Ludhiana","country":"India","lat":30.93,"lng":75.87,"scale":1.93}},{"type":"Feature","geometry":{"type":"Point","coordinates":[104.83,26.59]},"properties":{"city":"Lupanshui","cityId":"Lupanshui","country":"China","lat":26.59,"lng":104.83,"scale":1.72}},{"type":"Feature","geometry":{"type":"Point","coordinates":[28.28,-15.42]},"properties":{"city":"Lusaka","cityId":"Lusaka","country":"Zambia","lat":-15.42,"lng":28.28,"scale":1.77}},{"type":"Feature","geometry":{"type":"Point","coordinates":[32.65,25.7]},"properties":{"city":"Luxor","cityId":"Luxor","country":"Egypt","lat":25.7,"lng":32.65,"scale":1.33}},{"type":"Feature","geometry":{"type":"Point","coordinates":[24.03,49.83]},"properties":{"city":"Lvov","cityId":"Lvov","country":"Ukraine","lat":49.83,"lng":24.03,"scale":1.47}},{"type":"Feature","geometry":{"type":"Point","coordinates":[4.83,45.77]},"properties":{"city":"Lyon","cityId":"Lyon","country":"France","lat":45.77,"lng":4.83,"scale":1.82}},{"type":"Feature","geometry":{"type":"Point","coordinates":[-51.05,0.03]},"properties":{"city":"Macapa","cityId":"Macapa","country":"Brazil","lat":0.03,"lng":-51.05,"scale":1.25}},{"type":"Feature","geometry":{"type":"Point","coordinates":[113.55,22.2]},"properties":{"city":"Macau","cityId":"Macau","country":"Macau S.A.R","lat":22.2,"lng":113.55,"scale":1.3}},{"type":"Feature","geometry":{"type":"Point","coordinates":[-35.73,-9.62]},"properties":{"city":"Maceio","cityId":"Maceio","country":"Brazil","lat":-9.62,"lng":-35.73,"scale":1.7}},{"type":"Feature","geometry":{"type":"Point","coordinates":[-3.68,40.4]},"properties":{"city":"Madrid","cityId":"Madrid","country":"Spain","lat":40.4,"lng":-3.68,"scale":3.21}},{"type":"Feature","geometry":{"type":"Point","coordinates":[78.12,9.92]},"properties":{"city":"Madurai","cityId":"Madurai","country":"India","lat":9.92,"lng":78.12,"scale":1.76}},{"type":"Feature","geometry":{"type":"Point","coordinates":[58.98,53.42]},"properties":{"city":"Magnitogorsk","cityId":"Magnitogorsk","country":"Russia","lat":53.42,"lng":58.98,"scale":1.17}},{"type":"Feature","geometry":{"type":"Point","coordinates":[13.16,11.85]},"properties":{"city":"Maiduguri","cityId":"Maiduguri","country":"Nigeria","lat":11.85,"lng":13.16,"scale":1.53}},{"type":"Feature","geometry":{"type":"Point","coordinates":[39.82,21.43]},"properties":{"city":"Makkah","cityId":"Makkah","country":"Saudi Arabia","lat":21.43,"lng":39.82,"scale":1.8}},{"type":"Feature","geometry":{"type":"Point","coordinates":[8.53,7.73]},"properties":{"city":"Makurdi","cityId":"Makurdi","country":"Nigeria","lat":7.73,"lng":8.53,"scale":1.05}},{"type":"Feature","geometry":{"type":"Point","coordinates":[112.61,-7.98]},"properties":{"city":"Malang","cityId":"Malang","country":"Indonesia","lat":-7.98,"lng":112.61,"scale":1.47}},{"type":"Feature","geometry":{"type":"Point","coordinates":[13.03,55.58]},"properties":{"city":"Malmo","cityId":"Malmo","country":"Sweden","lat":55.58,"lng":13.03,"scale":1.02}},{"type":"Feature","geometry":{"type":"Point","coordinates":[-86.27,12.15]},"properties":{"city":"Managua","cityId":"Managua","country":"Nicaragua","lat":12.15,"lng":-86.27,"scale":1.55}},{"type":"Feature","geometry":{"type":"Point","coordinates":[50.58,26.24]},"properties":{"city":"Manama","cityId":"Manama","country":"Bahrain","lat":26.24,"lng":50.58,"scale":1.3}},{"type":"Feature","geometry":{"type":"Point","coordinates":[-60,-3.1]},"properties":{"city":"Manaus","cityId":"Manaus","country":"Brazil","lat":-3.1,"lng":-60,"scale":1.98}},{"type":"Feature","geometry":{"type":"Point","coordinates":[-2.25,53.5]},"properties":{"city":"Manchester","cityId":"Manchester","country":"United Kingdom","lat":53.5,"lng":-2.25,"scale":2.18}},{"type":"Feature","geometry":{"type":"Point","coordinates":[96.09,21.97]},"properties":{"city":"Mandalay","cityId":"Mandalay","country":"Myanmar","lat":21.97,"lng":96.09,"scale":1.76}},{"type":"Feature","geometry":{"type":"Point","coordinates":[74.85,12.9]},"properties":{"city":"Mangalore","cityId":"Mangalore","country":"India","lat":12.9,"lng":74.85,"scale":1.45}},{"type":"Feature","geometry":{"type":"Point","coordinates":[120.98,14.6]},"properties":{"city":"Manila","cityId":"Manila","country":"Philippines","lat":14.6,"lng":120.98,"scale":4.36}},{"type":"Feature","geometry":{"type":"Point","coordinates":[-75.52,5.06]},"properties":{"city":"Manizales","cityId":"Manizales","country":"Colombia","lat":5.06,"lng":-75.52,"scale":1.13}},{"type":"Feature","geometry":{"type":"Point","coordinates":[174.88,-37]},"properties":{"city":"Manukau","cityId":"Manukau","country":"New Zealand","lat":-37,"lng":174.88,"scale":1.13}},{"type":"Feature","geometry":{"type":"Point","coordinates":[32.59,-25.96]},"properties":{"city":"Maputo","cityId":"Maputo","country":"Mozambique","lat":-25.96,"lng":32.59,"scale":1.83}},{"type":"Feature","geometry":{"type":"Point","coordinates":[-57.58,-38]},"properties":{"city":"Mar del Plata","cityId":"Mar del Plata","country":"Argentina","lat":-38,"lng":-57.58,"scale":1.29}},{"type":"Feature","geometry":{"type":"Point","coordinates":[-71.66,10.73]},"properties":{"city":"Maracaibo","cityId":"Maracaibo","country":"Venezuela","lat":10.73,"lng":-71.66,"scale":2.12}},{"type":"Feature","geometry":{"type":"Point","coordinates":[14.32,10.6]},"properties":{"city":"Maroua","cityId":"Maroua","country":"Cameroon","lat":10.6,"lng":14.32,"scale":1.08}},{"type":"Feature","geometry":{"type":"Point","coordinates":[-8,31.63]},"properties":{"city":"Marrakesh","cityId":"Marrakesh","country":"Morocco","lat":31.63,"lng":-8,"scale":1.52}},{"type":"Feature","geometry":{"type":"Point","coordinates":[5.38,43.29]},"properties":{"city":"Marseille","cityId":"Marseille","country":"France","lat":43.29,"lng":5.38,"scale":1.81}},{"type":"Feature","geometry":{"type":"Point","coordinates":[27.48,-29.32]},"properties":{"city":"Maseru","cityId":"Maseru","country":"Lesotho","lat":-29.32,"lng":27.48,"scale":1.12}},{"type":"Feature","geometry":{"type":"Point","coordinates":[59.57,36.27]},"properties":{"city":"Mashhad","cityId":"Mashhad","country":"Iran","lat":36.27,"lng":59.57,"scale":2.27}},{"type":"Feature","geometry":{"type":"Point","coordinates":[-97.5,25.88]},"properties":{"city":"Matamoros","cityId":"Matamoros","country":"Mexico","lat":25.88,"lng":-97.5,"scale":1.28}},{"type":"Feature","geometry":{"type":"Point","coordinates":[132.77,33.85]},"properties":{"city":"Matsuyama","cityId":"Matsuyama","country":"Japan","lat":33.85,"lng":132.77,"scale":1.27}},{"type":"Feature","geometry":{"type":"Point","coordinates":[67.1,36.7]},"properties":{"city":"Mazar-e Sharif","cityId":"Mazar-e Sharif","country":"Afghanistan","lat":36.7,"lng":67.1,"scale":1.21}},{"type":"Feature","geometry":{"type":"Point","coordinates":[-106.42,23.22]},"properties":{"city":"Mazatlan","cityId":"Mazatlan","country":"Mexico","lat":23.22,"lng":-106.42,"scale":1.13}},{"type":"Feature","geometry":{"type":"Point","coordinates":[34.17,1.09]},"properties":{"city":"Mbale","cityId":"Mbale","country":"Uganda","lat":1.09,"lng":34.17,"scale":1.16}},{"type":"Feature","geometry":{"type":"Point","coordinates":[18.26,0.04]},"properties":{"city":"Mbandaka","cityId":"Mbandaka","country":"Congo (Kinshasa)","lat":0.04,"lng":18.26,"scale":1.03}},{"type":"Feature","geometry":{"type":"Point","coordinates":[33.43,-8.89]},"properties":{"city":"Mbeya","cityId":"Mbeya","country":"Tanzania","lat":-8.89,"lng":33.43,"scale":1.05}},{"type":"Feature","geometry":{"type":"Point","coordinates":[23.6,-6.15]},"properties":{"city":"Mbuji-Mayi","cityId":"Mbuji-Mayi","country":"Congo (Kinshasa)","lat":-6.15,"lng":23.6,"scale":1.76}},{"type":"Feature","geometry":{"type":"Point","coordinates":[98.65,3.58]},"properties":{"city":"Medan","cityId":"Medan","country":"Indonesia","lat":3.58,"lng":98.65,"scale":2.13}},{"type":"Feature","geometry":{"type":"Point","coordinates":[-75.58,6.28]},"properties":{"city":"Medellin","cityId":"Medellin","country":"Colombia","lat":6.28,"lng":-75.58,"scale":2.56}},{"type":"Feature","geometry":{"type":"Point","coordinates":[39.58,24.5]},"properties":{"city":"Medina","cityId":"Medina","country":"Saudi Arabia","lat":24.5,"lng":39.58,"scale":1.6}},{"type":"Feature","geometry":{"type":"Point","coordinates":[77.7,29]},"properties":{"city":"Meerut","cityId":"Meerut","country":"India","lat":29,"lng":77.7,"scale":1.81}},{"type":"Feature","geometry":{"type":"Point","coordinates":[144.98,-37.82]},"properties":{"city":"Melbourne","cityId":"Melbourne","country":"Australia","lat":-37.82,"lng":144.98,"scale":2.83}},{"type":"Feature","geometry":{"type":"Point","coordinates":[-90,35.12]},"properties":{"city":"Memphis","cityId":"Memphis","country":"United States of America","lat":35.12,"lng":-90,"scale":1.64}},{"type":"Feature","geometry":{"type":"Point","coordinates":[-68.82,-32.88]},"properties":{"city":"Mendoza","cityId":"Mendoza","country":"Argentina","lat":-32.88,"lng":-68.82,"scale":1.53}},{"type":"Feature","geometry":{"type":"Point","coordinates":[-89.62,20.97]},"properties":{"city":"Merida","cityId":"Merida (Mexico)","country":"Mexico","lat":20.97,"lng":-89.62,"scale":1.57}},{"type":"Feature","geometry":{"type":"Point","coordinates":[-71.13,8.4]},"properties":{"city":"Merida","cityId":"Merida (Venezuela)","country":"Venezuela","lat":8.4,"lng":-71.13,"scale":1.1}},{"type":"Feature","geometry":{"type":"Point","coordinates":[-115.48,32.65]},"properties":{"city":"Mexicali","cityId":"Mexicali","country":"Mexico","lat":32.65,"lng":-115.48,"scale":1.52}},{"type":"Feature","geometry":{"type":"Point","coordinates":[-99.13,19.44]},"properties":{"city":"Mexico City","cityId":"Mexico City","country":"Mexico","lat":19.44,"lng":-99.13,"scale":5.59}},{"type":"Feature","geometry":{"type":"Point","coordinates":[-80.22,25.79]},"properties":{"city":"Miami","cityId":"Miami","country":"United States of America","lat":25.79,"lng":-80.22,"scale":3.21}},{"type":"Feature","geometry":{"type":"Point","coordinates":[104.77,31.47]},"properties":{"city":"Mianyang","cityId":"Mianyang","country":"China","lat":31.47,"lng":104.77,"scale":1.81}},{"type":"Feature","geometry":{"type":"Point","coordinates":[9.21,45.47]},"properties":{"city":"Milan","cityId":"Milan","country":"Italy","lat":45.47,"lng":9.21,"scale":2.44}},{"type":"Feature","geometry":{"type":"Point","coordinates":[-87.92,43.05]},"properties":{"city":"Milwaukee","cityId":"Milwaukee","country":"United States of America","lat":43.05,"lng":-87.92,"scale":1.81}},{"type":"Feature","geometry":{"type":"Point","coordinates":[-93.25,44.98]},"properties":{"city":"Minneapolis","cityId":"Minneapolis","country":"United States of America","lat":44.98,"lng":-93.25,"scale":2.33}},{"type":"Feature","geometry":{"type":"Point","coordinates":[27.57,53.9]},"properties":{"city":"Minsk","cityId":"Minsk","country":"Belarus","lat":53.9,"lng":27.57,"scale":2}},{"type":"Feature","geometry":{"type":"Point","coordinates":[15.1,32.38]},"properties":{"city":"Misratah","cityId":"Misratah","country":"Libya","lat":32.38,"lng":15.1,"scale":1.14}},{"type":"Feature","geometry":{"type":"Point","coordinates":[131.42,31.92]},"properties":{"city":"Miyazaki","cityId":"Miyazaki","country":"Japan","lat":31.92,"lng":131.42,"scale":1.08}},{"type":"Feature","geometry":{"type":"Point","coordinates":[45.37,2.07]},"properties":{"city":"Mogadishu","cityId":"Mogadishu","country":"Somalia","lat":2.07,"lng":45.37,"scale":1.65}},{"type":"Feature","geometry":{"type":"Point","coordinates":[39.69,-4.04]},"properties":{"city":"Mombasa","cityId":"Mombasa","country":"Kenya","lat":-4.04,"lng":39.69,"scale":1.52}},{"type":"Feature","geometry":{"type":"Point","coordinates":[-10.8,6.31]},"properties":{"city":"Monrovia","cityId":"Monrovia","country":"Liberia","lat":6.31,"lng":-10.8,"scale":1.62}},{"type":"Feature","geometry":{"type":"Point","coordinates":[-100.33,25.67]},"properties":{"city":"Monterrey","cityId":"Monterrey","country":"Mexico","lat":25.67,"lng":-100.33,"scale":2.69}},{"type":"Feature","geometry":{"type":"Point","coordinates":[-43.86,-16.72]},"properties":{"city":"Montes Claros","cityId":"Montes Claros","country":"Brazil","lat":-16.72,"lng":-43.86,"scale":1.09}},{"type":"Feature","geometry":{"type":"Point","coordinates":[-56.17,-34.86]},"properties":{"city":"Montevideo","cityId":"Montevideo","country":"Uruguay","lat":-34.86,"lng":-56.17,"scale":1.87}},{"type":"Feature","geometry":{"type":"Point","coordinates":[3.87,43.61]},"properties":{"city":"Montpellier","cityId":"Montpellier","country":"France","lat":43.61,"lng":3.87,"scale":1.09}},{"type":"Feature","geometry":{"type":"Point","coordinates":[-73.58,45.5]},"properties":{"city":"Montreal","cityId":"Montreal","country":"Canada","lat":45.5,"lng":-73.58,"scale":2.68}},{"type":"Feature","geometry":{"type":"Point","coordinates":[78.76,28.84]},"properties":{"city":"Moradabad","cityId":"Moradabad","country":"India","lat":28.84,"lng":78.76,"scale":1.46}},{"type":"Feature","geometry":{"type":"Point","coordinates":[37.66,-6.82]},"properties":{"city":"Morogoro","cityId":"Morogoro","country":"Tanzania","lat":-6.82,"lng":37.66,"scale":1}},{"type":"Feature","geometry":{"type":"Point","coordinates":[37.62,55.75]},"properties":{"city":"Moscow","cityId":"Moscow","country":"Russia","lat":55.75,"lng":37.62,"scale":4.25}},{"type":"Feature","geometry":{"type":"Point","coordinates":[43.15,36.35]},"properties":{"city":"Mosul","cityId":"Mosul","country":"Iraq","lat":36.35,"lng":43.15,"scale":1.77}},{"type":"Feature","geometry":{"type":"Point","coordinates":[71.46,30.2]},"properties":{"city":"Multan","cityId":"Multan","country":"Pakistan","lat":30.2,"lng":71.46,"scale":1.87}},{"type":"Feature","geometry":{"type":"Point","coordinates":[72.86,19.02]},"properties":{"city":"Mumbai","cityId":"Mumbai","country":"India","lat":19.02,"lng":72.86,"scale":5.58}},{"type":"Feature","geometry":{"type":"Point","coordinates":[11.57,48.13]},"properties":{"city":"Munich","cityId":"Munich","country":"Germany","lat":48.13,"lng":11.57,"scale":1.75}},{"type":"Feature","geometry":{"type":"Point","coordinates":[33.1,68.97]},"properties":{"city":"Murmansk","cityId":"Murmansk","country":"Russia","lat":68.97,"lng":33.1,"scale":1.08}},{"type":"Feature","geometry":{"type":"Point","coordinates":[58.59,23.61]},"properties":{"city":"Muscat","cityId":"Muscat","country":"Oman","lat":23.61,"lng":58.59,"scale":1.42}},{"type":"Feature","geometry":{"type":"Point","coordinates":[32.93,-2.52]},"properties":{"city":"Mwanza","cityId":"Mwanza","country":"Tanzania","lat":-2.52,"lng":32.93,"scale":1.24}},{"type":"Feature","geometry":{"type":"Point","coordinates":[76.66,12.31]},"properties":{"city":"Mysore","cityId":"Mysore","country":"India","lat":12.31,"lng":76.66,"scale":1.52}},{"type":"Feature","geometry":{"type":"Point","coordinates":[138.17,36.65]},"properties":{"city":"Nagano","cityId":"Nagano","country":"Japan","lat":36.65,"lng":138.17,"scale":1.32}},{"type":"Feature","geometry":{"type":"Point","coordinates":[129.89,32.76]},"properties":{"city":"Nagasaki","cityId":"Nagasaki","country":"Japan","lat":32.76,"lng":129.89,"scale":1.19}},{"type":"Feature","geometry":{"type":"Point","coordinates":[136.91,35.15]},"properties":{"city":"Nagoya","cityId":"Nagoya","country":"Japan","lat":35.15,"lng":136.91,"scale":2.54}},{"type":"Feature","geometry":{"type":"Point","coordinates":[79.09,21.17]},"properties":{"city":"Nagpur","cityId":"Nagpur","country":"India","lat":21.17,"lng":79.09,"scale":2.27}},{"type":"Feature","geometry":{"type":"Point","coordinates":[127.67,26.21]},"properties":{"city":"Naha","cityId":"Naha","country":"Japan","lat":26.21,"lng":127.67,"scale":1.54}},{"type":"Feature","geometry":{"type":"Point","coordinates":[36.82,-1.28]},"properties":{"city":"Nairobi","cityId":"Nairobi","country":"Kenya","lat":-1.28,"lng":36.82,"scale":2.47}},{"type":"Feature","geometry":{"type":"Point","coordinates":[102.1,15]},"properties":{"city":"Nakhon Ratchasima","cityId":"Nakhon Ratchasima","country":"Thailand","lat":15,"lng":102.1,"scale":1.09}},{"type":"Feature","geometry":{"type":"Point","coordinates":[43.62,43.5]},"properties":{"city":"Naltchik","cityId":"Naltchik","country":"Russia","lat":43.5,"lng":43.62,"scale":1.07}},{"type":"Feature","geometry":{"type":"Point","coordinates":[39.29,-15.14]},"properties":{"city":"Nampula","cityId":"Nampula","country":"Mozambique","lat":-15.14,"lng":39.29,"scale":1.15}},{"type":"Feature","geometry":{"type":"Point","coordinates":[115.88,28.68]},"properties":{"city":"Nanchang","cityId":"Nanchang","country":"China","lat":28.68,"lng":115.88,"scale":2.23}},{"type":"Feature","geometry":{"type":"Point","coordinates":[106.13,30.78]},"properties":{"city":"Nanchong","cityId":"Nanchong","country":"China","lat":30.78,"lng":106.13,"scale":2.16}},{"type":"Feature","geometry":{"type":"Point","coordinates":[6.2,48.68]},"properties":{"city":"Nancy","cityId":"Nancy","country":"France","lat":48.68,"lng":6.2,"scale":1.02}},{"type":"Feature","geometry":{"type":"Point","coordinates":[77.3,19.17]},"properties":{"city":"Nanded","cityId":"Nanded","country":"India","lat":19.17,"lng":77.3,"scale":1.34}},{"type":"Feature","geometry":{"type":"Point","coordinates":[118.78,32.05]},"properties":{"city":"Nanjing","cityId":"Nanjing","country":"China","lat":32.05,"lng":118.78,"scale":2.68}},{"type":"Feature","geometry":{"type":"Point","coordinates":[108.32,22.82]},"properties":{"city":"Nanning","cityId":"Nanning","country":"China","lat":22.82,"lng":108.32,"scale":2.15}},{"type":"Feature","geometry":{"type":"Point","coordinates":[-1.59,47.21]},"properties":{"city":"Nantes","cityId":"Nantes","country":"France","lat":47.21,"lng":-1.59,"scale":1.19}},{"type":"Feature","geometry":{"type":"Point","coordinates":[112.53,33]},"properties":{"city":"Nanyang","cityId":"Nanyang","country":"China","lat":33,"lng":112.53,"scale":2.06}},{"type":"Feature","geometry":{"type":"Point","coordinates":[14.25,40.84]},"properties":{"city":"Naples","cityId":"Naples","country":"Italy","lat":40.84,"lng":14.25,"scale":2.19}},{"type":"Feature","geometry":{"type":"Point","coordinates":[-86.78,36.17]},"properties":{"city":"Nashville","cityId":"Nashville","country":"United States of America","lat":36.17,"lng":-86.78,"scale":1.52}},{"type":"Feature","geometry":{"type":"Point","coordinates":[73.78,20]},"properties":{"city":"Nasik","cityId":"Nasik","country":"India","lat":20,"lng":73.78,"scale":1.85}},{"type":"Feature","geometry":{"type":"Point","coordinates":[-35.24,-5.78]},"properties":{"city":"Natal","cityId":"Natal","country":"Brazil","lat":-5.78,"lng":-35.24,"scale":1.64}},{"type":"Feature","geometry":{"type":"Point","coordinates":[96.12,19.77]},"properties":{"city":"Naypyidaw","cityId":"Naypyidaw","country":"Myanmar","lat":19.77,"lng":96.12,"scale":1.55}},{"type":"Feature","geometry":{"type":"Point","coordinates":[15.05,12.11]},"properties":{"city":"Ndjamena","cityId":"Ndjamena","country":"Chad","lat":12.11,"lng":15.05,"scale":1.59}},{"type":"Feature","geometry":{"type":"Point","coordinates":[105.05,29.58]},"properties":{"city":"Neijiang","cityId":"Neijiang","country":"China","lat":29.58,"lng":105.05,"scale":1.84}},{"type":"Feature","geometry":{"type":"Point","coordinates":[77.2,28.6]},"properties":{"city":"New Delhi","cityId":"New Delhi","country":"India","lat":28.6,"lng":77.2,"scale":1.08}},{"type":"Feature","geometry":{"type":"Point","coordinates":[-90.04,30]},"properties":{"city":"New Orleans","cityId":"New Orleans","country":"United States of America","lat":30,"lng":-90.04,"scale":1.46}},{"type":"Feature","geometry":{"type":"Point","coordinates":[-73.98,40.75]},"properties":{"city":"New York","cityId":"New York","country":"United States of America","lat":40.75,"lng":-73.98,"scale":5.59}},{"type":"Feature","geometry":{"type":"Point","coordinates":[151.82,-32.85]},"properties":{"city":"Newcastle","cityId":"Newcastle","country":"Australia","lat":-32.85,"lng":151.82,"scale":1.67}},{"type":"Feature","geometry":{"type":"Point","coordinates":[2.12,13.52]},"properties":{"city":"Niamey","cityId":"Niamey","country":"Niger","lat":13.52,"lng":2.12,"scale":1.54}},{"type":"Feature","geometry":{"type":"Point","coordinates":[121.55,29.88]},"properties":{"city":"Ningbo","cityId":"Ningbo","country":"China","lat":29.88,"lng":121.55,"scale":2.05}},{"type":"Feature","geometry":{"type":"Point","coordinates":[24.89,12.06]},"properties":{"city":"Niyala","cityId":"Niyala","country":"Sudan","lat":12.06,"lng":24.89,"scale":1.15}},{"type":"Feature","geometry":{"type":"Point","coordinates":[44,56.33]},"properties":{"city":"Nizhny Novgorod","cityId":"Nizhny Novgorod","country":"Russia","lat":56.33,"lng":44,"scale":1.75}},{"type":"Feature","geometry":{"type":"Point","coordinates":[59.97,57.92]},"properties":{"city":"Nizhny Tagil","cityId":"Nizhny Tagil","country":"Russia","lat":57.92,"lng":59.97,"scale":1.14}},{"type":"Feature","geometry":{"type":"Point","coordinates":[-76.28,36.85]},"properties":{"city":"Norfolk","cityId":"Norfolk","country":"United States of America","lat":36.85,"lng":-76.28,"scale":1.62}},{"type":"Feature","geometry":{"type":"Point","coordinates":[-15.98,18.09]},"properties":{"city":"Nouakchott","cityId":"Nouakchott","country":"Mauritania","lat":18.09,"lng":-15.98,"scale":1.43}},{"type":"Feature","geometry":{"type":"Point","coordinates":[87.11,53.75]},"properties":{"city":"Novokuznetsk","cityId":"Novokuznetsk","country":"Russia","lat":53.75,"lng":87.11,"scale":1.28}},{"type":"Feature","geometry":{"type":"Point","coordinates":[82.96,55.03]},"properties":{"city":"Novosibirsk","cityId":"Novosibirsk","country":"Russia","lat":55.03,"lng":82.96,"scale":1.81}},{"type":"Feature","geometry":{"type":"Point","coordinates":[-99.55,27.5]},"properties":{"city":"Nuevo Laredo","cityId":"Nuevo Laredo","country":"Mexico","lat":27.5,"lng":-99.55,"scale":1.11}},{"type":"Feature","geometry":{"type":"Point","coordinates":[-96.67,17.08]},"properties":{"city":"Oaxaca","cityId":"Oaxaca","country":"Mexico","lat":17.08,"lng":-96.67,"scale":1.27}},{"type":"Feature","geometry":{"type":"Point","coordinates":[30.71,46.49]},"properties":{"city":"Odessa","cityId":"Odessa","country":"Ukraine","lat":46.49,"lng":30.71,"scale":1.59}},{"type":"Feature","geometry":{"type":"Point","coordinates":[4.24,8.13]},"properties":{"city":"Ogbomosho","cityId":"Ogbomosho","country":"Nigeria","lat":8.13,"lng":4.24,"scale":1.56}},{"type":"Feature","geometry":{"type":"Point","coordinates":[-97.52,35.47]},"properties":{"city":"Oklahoma City","cityId":"Oklahoma City","country":"United States of America","lat":35.47,"lng":-97.52,"scale":1.46}},{"type":"Feature","geometry":{"type":"Point","coordinates":[-96.01,41.24]},"properties":{"city":"Omaha","cityId":"Omaha","country":"United States of America","lat":41.24,"lng":-96.01,"scale":1.52}},{"type":"Feature","geometry":{"type":"Point","coordinates":[32.48,15.62]},"properties":{"city":"Omdurman","cityId":"Omdurman","country":"Sudan","lat":15.62,"lng":32.48,"scale":2.24}},{"type":"Feature","geometry":{"type":"Point","coordinates":[73.4,54.99]},"properties":{"city":"Omsk","cityId":"Omsk","country":"Russia","lat":54.99,"lng":73.4,"scale":1.67}},{"type":"Feature","geometry":{"type":"Point","coordinates":[-0.62,35.71]},"properties":{"city":"Oran","cityId":"Oran","country":"Algeria","lat":35.71,"lng":-0.62,"scale":1.47}},{"type":"Feature","geometry":{"type":"Point","coordinates":[55.11,51.78]},"properties":{"city":"Orenburg","cityId":"Orenburg","country":"Russia","lat":51.78,"lng":55.11,"scale":1.29}},{"type":"Feature","geometry":{"type":"Point","coordinates":[-81.38,28.51]},"properties":{"city":"Orlando","cityId":"Orlando","country":"United States of America","lat":28.51,"lng":-81.38,"scale":1.79}},{"type":"Feature","geometry":{"type":"Point","coordinates":[135.46,34.75]},"properties":{"city":"Osaka","cityId":"Osaka","country":"Japan","lat":34.75,"lng":135.46,"scale":4.4}},{"type":"Feature","geometry":{"type":"Point","coordinates":[82.61,49.99]},"properties":{"city":"Oskemen","cityId":"Oskemen","country":"Kazakhstan","lat":49.99,"lng":82.61,"scale":1.08}},{"type":"Feature","geometry":{"type":"Point","coordinates":[10.75,59.92]},"properties":{"city":"Oslo","cityId":"Oslo","country":"Norway","lat":59.92,"lng":10.75,"scale":1.49}},{"type":"Feature","geometry":{"type":"Point","coordinates":[-75.7,45.42]},"properties":{"city":"Ottawa","cityId":"Ottawa","country":"Canada","lat":45.42,"lng":-75.7,"scale":1.68}},{"type":"Feature","geometry":{"type":"Point","coordinates":[-1.52,12.37]},"properties":{"city":"Ouagadougou","cityId":"Ouagadougou","country":"Burkina Faso","lat":12.37,"lng":-1.52,"scale":1.68}},{"type":"Feature","geometry":{"type":"Point","coordinates":[-1.91,34.69]},"properties":{"city":"Oujda","cityId":"Oujda","country":"Morocco","lat":34.69,"lng":-1.91,"scale":1.17}},{"type":"Feature","geometry":{"type":"Point","coordinates":[100.36,-0.96]},"properties":{"city":"Padang","cityId":"Padang","country":"Indonesia","lat":-0.96,"lng":100.36,"scale":1.5}},{"type":"Feature","geometry":{"type":"Point","coordinates":[104.75,-2.98]},"properties":{"city":"Palembang","cityId":"Palembang","country":"Indonesia","lat":-2.98,"lng":104.75,"scale":1.98}},{"type":"Feature","geometry":{"type":"Point","coordinates":[13.35,38.13]},"properties":{"city":"Palermo","cityId":"Palermo","country":"Italy","lat":38.13,"lng":13.35,"scale":1.51}},{"type":"Feature","geometry":{"type":"Point","coordinates":[-79.53,8.97]},"properties":{"city":"Panama City","cityId":"Panama City","country":"Panama","lat":8.97,"lng":-79.53,"scale":1.75}},{"type":"Feature","geometry":{"type":"Point","coordinates":[-55.17,5.84]},"properties":{"city":"Paramaribo","cityId":"Paramaribo","country":"Suriname","lat":5.84,"lng":-55.17,"scale":1}},{"type":"Feature","geometry":{"type":"Point","coordinates":[2.33,48.87]},"properties":{"city":"Paris","cityId":"Paris","country":"France","lat":48.87,"lng":2.33,"scale":4.14}},{"type":"Feature","geometry":{"type":"Point","coordinates":[-77.28,1.21]},"properties":{"city":"Pasto","cityId":"Pasto","country":"Colombia","lat":1.21,"lng":-77.28,"scale":1.14}},{"type":"Feature","geometry":{"type":"Point","coordinates":[85.13,25.62]},"properties":{"city":"Patna","cityId":"Patna","country":"India","lat":25.62,"lng":85.13,"scale":2.15}},{"type":"Feature","geometry":{"type":"Point","coordinates":[76.95,52.3]},"properties":{"city":"Pavlodar","cityId":"Pavlodar","country":"Kazakhstan","lat":52.3,"lng":76.95,"scale":1.09}},{"type":"Feature","geometry":{"type":"Point","coordinates":[-52.33,-31.75]},"properties":{"city":"Pelotas","cityId":"Pelotas","country":"Brazil","lat":-31.75,"lng":-52.33,"scale":1.08}},{"type":"Feature","geometry":{"type":"Point","coordinates":[45,53.18]},"properties":{"city":"Penza","cityId":"Penza","country":"Russia","lat":53.18,"lng":45,"scale":1.26}},{"type":"Feature","geometry":{"type":"Point","coordinates":[56.25,58]},"properties":{"city":"Perm","cityId":"Perm","country":"Russia","lat":58,"lng":56.25,"scale":1.59}},{"type":"Feature","geometry":{"type":"Point","coordinates":[115.84,-31.96]},"properties":{"city":"Perth","cityId":"Perth","country":"Australia","lat":-31.96,"lng":115.84,"scale":1.88}},{"type":"Feature","geometry":{"type":"Point","coordinates":[71.54,34.01]},"properties":{"city":"Peshawar","cityId":"Peshawar","country":"Pakistan","lat":34.01,"lng":71.54,"scale":1.76}},{"type":"Feature","geometry":{"type":"Point","coordinates":[-40.51,-9.38]},"properties":{"city":"Petrolina","cityId":"Petrolina","country":"Brazil","lat":-9.38,"lng":-40.51,"scale":1.01}},{"type":"Feature","geometry":{"type":"Point","coordinates":[34.28,61.85]},"properties":{"city":"Petrozavodsk","cityId":"Petrozavodsk","country":"Russia","lat":61.85,"lng":34.28,"scale":1.02}},{"type":"Feature","geometry":{"type":"Point","coordinates":[-75.17,40]},"properties":{"city":"Philadelphia","cityId":"Philadelphia","country":"United States of America","lat":40,"lng":-75.17,"scale":3.19}},{"type":"Feature","geometry":{"type":"Point","coordinates":[104.92,11.55]},"properties":{"city":"Phnom Penh","cityId":"Phnom Penh","country":"Cambodia","lat":11.55,"lng":104.92,"scale":1.84}},{"type":"Feature","geometry":{"type":"Point","coordinates":[-112.07,33.54]},"properties":{"city":"Phoenix","cityId":"Phoenix","country":"United States of America","lat":33.54,"lng":-112.07,"scale":2.64}},